{
  "01010000": {
    "comid": "4289887",
    "lat": 46.70055556,
    "lon": -69.7155556,
    "name": "St. John River at Ninemile Bridge, Maine"
  },
  "01010070": {
    "comid": "4289553",
    "lat": 46.89388889,
    "lon": -69.7516667,
    "name": "Big Black River near Depot Mtn, Maine"
  },
  "01010500": {
    "comid": "4288603",
    "lat": 47.11305556,
    "lon": -69.0880556,
    "name": "St. John River at Dickey, Maine"
  },
  "01011000": {
    "comid": "721640",
    "lat": 47.0697222,
    "lon": -69.0794444,
    "name": "Allagash River near Allagash, Maine"
  },
  "01013500": {
    "comid": "724696",
    "lat": 47.2375,
    "lon": -68.58277778,
    "name": "Fish River near Fort Kent, Maine"
  },
  "01014000": {
    "comid": "4287975",
    "lat": 47.2833333,
    "lon": -68.58527778,
    "name": "St. John River below Fish R, nr Fort Kent, Maine"
  },
  "01015800": {
    "comid": "805443",
    "lat": 46.52305556,
    "lon": -68.3716667,
    "name": "Aroostook River near Masardis, Maine"
  },
  "01017000": {
    "comid": "805113",
    "lat": 46.7772222,
    "lon": -68.1572222,
    "name": "Aroostook River at Washburn, Maine"
  },
  "01017290": {
    "comid": "802877",
    "lat": 46.8886111,
    "lon": -67.945,
    "name": "Little Madawaska River at Caribou, Maine"
  },
  "01018035": {
    "comid": "817165",
    "lat": 46.1811111,
    "lon": -67.80388889,
    "name": "Meduxnekeag River at Lowery Rd. nr Houlton, Maine"
  },
  "01018500": {
    "comid": "5194970",
    "lat": 45.5683333,
    "lon": -67.4283333,
    "name": "St. Croix River at Vanceboro, Maine"
  },
  "01019000": {
    "comid": "5196478",
    "lat": 45.1725,
    "lon": -67.76888889,
    "name": "Grand Lake Stream at Grand Lake Stream, Maine"
  },
  "01021000": {
    "comid": "5197200",
    "lat": 45.1369444,
    "lon": -67.3180556,
    "name": "St. Croix River at Baring, Maine"
  },
  "01022500": {
    "comid": "2677104",
    "lat": 44.60805556,
    "lon": -67.93527778,
    "name": "Narraguagus River at Cherryfield, Maine"
  },
  "01027200": {
    "comid": "1702734",
    "lat": 45.93527778,
    "lon": -69.9936111,
    "name": "North Branch Penobscot River nr Pittston Farm, ME"
  },
  "01027240": {
    "comid": "1702872",
    "lat": 45.8739222,
    "lon": -69.9950083,
    "name": "S. Br. Penobscot River nr Canada Falls Lake, Maine"
  },
  "01029100": {
    "comid": "1711668",
    "lat": 46.1343611,
    "lon": -68.7939056,
    "name": "E. Br. Penobscot River below Grand Lake Matagamon"
  },
  "01029500": {
    "comid": "1713454",
    "lat": 45.73027778,
    "lon": -68.5894444,
    "name": "East Branch Penobscot River at Grindstone, Maine"
  },
  "01030500": {
    "comid": "3923",
    "lat": 45.5011111,
    "lon": -68.3058333,
    "name": "Mattawamkeag River near Mattawamkeag, Maine"
  },
  "01031500": {
    "comid": "1722317",
    "lat": 45.175,
    "lon": -69.3147222,
    "name": "Piscataquis River near Dover-Foxcroft, Maine"
  },
  "01033000": {
    "comid": "1721939",
    "lat": 45.27,
    "lon": -69.1122222,
    "name": "Sebec River at Sebec, Maine"
  },
  "01034000": {
    "comid": "1720007",
    "lat": 45.26055556,
    "lon": -68.8686111,
    "name": "Piscataquis River at Medford, Maine"
  },
  "01034500": {
    "comid": "1733994",
    "lat": 45.2361111,
    "lon": -68.65138889,
    "name": "Penobscot River at West Enfield, Maine"
  },
  "01037000": {
    "comid": "1735782",
    "lat": 44.8611111,
    "lon": -68.8316667,
    "name": "Kenduskeag Stream near Bangor, Maine"
  },
  "01042500": {
    "comid": "1025264",
    "lat": 45.3397222,
    "lon": -69.9619444,
    "name": "Kennebec River at The Forks, Maine"
  },
  "01043500": {
    "comid": "1032541",
    "lat": 45.22905,
    "lon": -70.20112778,
    "name": "Dead River near Dead River, Maine"
  },
  "01044550": {
    "comid": "1032315",
    "lat": 45.3136111,
    "lon": -70.2416667,
    "name": "Spencer Stream near Grand Falls, Maine"
  },
  "01046500": {
    "comid": "3319220",
    "lat": 45.0519444,
    "lon": -69.8855556,
    "name": "Kennebec River at Bingham, Maine"
  },
  "01047000": {
    "comid": "3321976",
    "lat": 44.86916667,
    "lon": -69.955,
    "name": "Carrabassett River near North Anson, Maine"
  },
  "01047150": {
    "comid": "3322102",
    "lat": 44.77888889,
    "lon": -69.8869444,
    "name": "Kennebec River near Madison, Maine"
  },
  "01048000": {
    "comid": "3322258",
    "lat": 44.70805556,
    "lon": -69.9375,
    "name": "Sandy River near Mercer, Maine"
  },
  "01049265": {
    "comid": "3325334",
    "lat": 44.4722222,
    "lon": -69.68388889,
    "name": "Kennebec River at North Sidney, Maine"
  },
  "01049500": {
    "error": "HTTP Error 502: Bad Gateway"
  },
  "01052500": {
    "comid": "19334265",
    "lat": 44.8775,
    "lon": -71.0575,
    "name": "Diamond River near Wentworth Location, NH"
  },
  "01053500": {
    "comid": "19334535",
    "lat": 44.7825,
    "lon": -71.1286111,
    "name": "Androscoggin River at Errol, NH"
  },
  "01053600": {
    "comid": "19334577",
    "lat": 44.6661111,
    "lon": -71.18138889,
    "name": "Androscoggin River below Bog Brook at Cambridge NH"
  },
  "01054000": {
    "comid": "19335265",
    "lat": 44.4358333,
    "lon": -71.19027778,
    "name": "Androscoggin River near Gorham, NH"
  },
  "01054500": {
    "comid": "6710311",
    "lat": 44.5519444,
    "lon": -70.5441667,
    "name": "Androscoggin River at Rumford, Maine"
  },
  "01055000": {
    "comid": "6709987",
    "lat": 44.64277778,
    "lon": -70.58888889,
    "name": "Swift River near Roxbury, Maine"
  },
  "01059000": {
    "comid": "6712623",
    "lat": 44.0722222,
    "lon": -70.2080556,
    "name": "Androscoggin River near Auburn, Maine"
  },
  "01064140": {
    "comid": "6724855",
    "lat": 43.7245972,
    "lon": -70.3029333,
    "name": "Presumpscot River near West Falmouth, Maine"
  },
  "010642505": {
    "comid": "9311719",
    "lat": 44.08388889,
    "lon": -71.2855556,
    "name": "SACO RIVER AT RIVER STREET, AT BARTLETT, NH"
  },
  "01064500": {
    "comid": "9316375",
    "lat": 43.9908333,
    "lon": -71.0905556,
    "name": "Saco River near Conway, NH"
  },
  "01066000": {
    "comid": "9314337",
    "lat": 43.80805556,
    "lon": -70.7816667,
    "name": "Saco River at Cornish, Maine"
  },
  "01072800": {
    "comid": "5844728",
    "lat": 43.26841527,
    "lon": -70.9736739,
    "name": "COCHECO RIVER NEAR ROCHESTER, NH"
  },
  "01072870": {
    "comid": "5844802",
    "lat": 43.23480487,
    "lon": -70.9564507,
    "name": "ISINGLASS R AT ROCHESTER NECK RD, NR DOVER, NH"
  },
  "01073000": {
    "comid": "5845058",
    "lat": 43.1486955,
    "lon": -70.9650603,
    "name": "OYSTER RIVER NEAR DURHAM, NH"
  },
  "01073500": {
    "comid": "5845142",
    "lat": 43.10258558,
    "lon": -70.952559,
    "name": "LAMPREY RIVER NEAR NEWMARKET, NH"
  },
  "01074520": {
    "comid": "6728911",
    "lat": 44.0475669,
    "lon": -71.6598029,
    "name": "EAST BRANCH PEMIGEWASSET RIVER AT LINCOLN, NH"
  },
  "01075000": {
    "comid": "6731257",
    "lat": 43.9761792,
    "lon": -71.6795244,
    "name": "PEMIGEWASSET RIVER AT WOODSTOCK, NH"
  },
  "01076000": {
    "comid": "6730287",
    "lat": 43.79562647,
    "lon": -71.8453594,
    "name": "BAKER RIVER NEAR RUMNEY, NH"
  },
  "01076500": {
    "comid": "6731463",
    "lat": 43.7592388,
    "lon": -71.6856337,
    "name": "PEMIGEWASSET RIVER AT PLYMOUTH, NH"
  },
  "01078000": {
    "comid": "6731199",
    "lat": 43.56646307,
    "lon": -71.747857,
    "name": "SMITH RIVER NEAR BRISTOL, NH"
  },
  "01081000": {
    "comid": "6739752",
    "lat": 43.44174376,
    "lon": -71.5875752,
    "name": "WINNIPESAUKEE RIVER AT TILTON, NH"
  },
  "01081500": {
    "comid": "6741776",
    "lat": 43.42285456,
    "lon": -71.6528543,
    "name": "MERRIMACK RIVER AT FRANKLIN JUNCTION, NH"
  },
  "01085000": {
    "comid": "6761358",
    "lat": 43.1520237,
    "lon": -71.85730149,
    "name": "CONTOOCOOK RIVER NEAR HENNIKER, NH"
  },
  "01085500": {
    "comid": "6762034",
    "lat": 43.1928569,
    "lon": -71.7472995,
    "name": "CONTOOCOOK R BL HOPKINTON DAM AT W HOPKINTON, NH"
  },
  "01086000": {
    "comid": "6761776",
    "lat": 43.25091159,
    "lon": -71.7322996,
    "name": "WARNER RIVER AT DAVISVILLE, NH"
  },
  "01087000": {
    "comid": "6761086",
    "lat": 43.2970225,
    "lon": -71.6945212,
    "name": "BLACKWATER RIVER NEAR WEBSTER, NH"
  },
  "01089500": {
    "comid": "6740276",
    "lat": 43.25674759,
    "lon": -71.36951248,
    "name": "SUNCOOK RIVER AT NORTH CHICHESTER, NH"
  },
  "01089925": {
    "comid": "6741448",
    "lat": 43.15980438,
    "lon": -71.4059011,
    "name": "SUNCOOK RIVER AT NH 28, NEAR SUNCOOK, NH"
  },
  "01091000": {
    "comid": "6741162",
    "lat": 43.01480519,
    "lon": -71.64146129,
    "name": "SOUTH BRANCH PISCATAQUOG RIVER NEAR GOFFSTOWN, NH"
  },
  "01091500": {
    "comid": "6741094",
    "lat": 43.01675,
    "lon": -71.5506252,
    "name": "PISCATAQUOG RIVER NEAR GOFFSTOWN, NH"
  },
  "01092000": {
    "comid": "6745688",
    "lat": 42.9481405,
    "lon": -71.4634002,
    "name": "MERRIMACK R NR GOFFS FALLS, BELOW MANCHESTER, NH"
  },
  "01093852": {
    "comid": "6744326",
    "lat": 42.8425858,
    "lon": -71.7067399,
    "name": "SOUHEGAN RIVER (SITE WLR-1) NEAR MILFORD, NH"
  },
  "01094000": {
    "comid": "6745410",
    "lat": 42.8575865,
    "lon": -71.5061785,
    "name": "SOUHEGAN RIVER AT MERRIMACK, NH"
  },
  "01094500": {
    "comid": "6078037",
    "lat": 42.49506389,
    "lon": -71.7219333,
    "name": "NORTH NASHUA RIVER NEAR LEOMINSTER, MA"
  },
  "01095503": {
    "comid": "931070172",
    "lat": 42.41944444,
    "lon": -71.6661111,
    "name": "NASHUA RIVER, WATER STREET BRIDGE, AT CLINTON, MA"
  },
  "01096500": {
    "comid": "6075425",
    "lat": 42.66758945,
    "lon": -71.57506809,
    "name": "NASHUA RIVER AT EAST PEPPERELL, MA"
  },
  "01097000": {
    "comid": "6772217",
    "lat": 42.432038,
    "lon": -71.4497848,
    "name": "ASSABET RIVER AT MAYNARD, MA"
  },
  "01098530": {
    "comid": "6772927",
    "lat": 42.3253732,
    "lon": -71.3975605,
    "name": "SUDBURY RIVER AT SAXONVILLE, MA"
  },
  "01099500": {
    "comid": "6771379",
    "lat": 42.6367581,
    "lon": -71.3020047,
    "name": "CONCORD R BELOW R MEADOW BROOK, AT LOWELL, MA"
  },
  "01100000": {
    "comid": "6746184",
    "lat": 42.64592464,
    "lon": -71.2983937,
    "name": "MERRIMACK RIVER BL CONCORD RIVER AT LOWELL, MA"
  },
  "01100627": {
    "comid": "6744972",
    "lat": 42.6714806,
    "lon": -71.1492239,
    "name": "SHAWSHEEN RIVER AT BALMORAL STREET AT ANDOVER, MA"
  },
  "01102000": {
    "comid": "5860401",
    "lat": 42.6598157,
    "lon": -70.8936622,
    "name": "IPSWICH RIVER NEAR IPSWICH, MA"
  },
  "01103500": {
    "comid": "5867435",
    "lat": 42.256209,
    "lon": -71.2600558,
    "name": "CHARLES RIVER AT DOVER, MA"
  },
  "01104200": {
    "comid": "5867409",
    "lat": 42.3164861,
    "lon": -71.227833,
    "name": "CHARLES RIVER AT WELLESLEY, MA"
  },
  "01104500": {
    "comid": "5868225",
    "lat": 42.37231857,
    "lon": -71.2336668,
    "name": "CHARLES RIVER AT WALTHAM, MA"
  },
  "01105554": {
    "comid": "5867473",
    "lat": 42.2092655,
    "lon": -71.1458851,
    "name": "NEPONSET RIVER AT GREENLODGE ST NEAR CANTON, MA"
  },
  "01108000": {
    "comid": "6126439",
    "lat": 41.9339903,
    "lon": -70.9564307,
    "name": "TAUNTON RIVER NEAR BRIDGEWATER, MA"
  },
  "01109060": {
    "comid": "6129565",
    "lat": 41.8662122,
    "lon": -71.12282369,
    "name": "THREEMILE RIVER AT NORTH DIGHTON, MA"
  },
  "01109403": {
    "comid": "6128655",
    "lat": 41.83093377,
    "lon": -71.3503315,
    "name": "TEN MILE R., PAWTUCKET AVE. AT E. PROVIDENCE, RI"
  },
  "01111212": {
    "comid": "6116268",
    "lat": 42.05481959,
    "lon": -71.6164542,
    "name": "BLACKSTONE RIVER, RT 122 BRIDGE NEAR UXBRIDGE, MA"
  },
  "01111500": {
    "comid": "6119204",
    "lat": 41.99648716,
    "lon": -71.56200758,
    "name": "BRANCH RIVER AT FORESTDALE, RI"
  },
  "01112500": {
    "comid": "6117292",
    "lat": 42.0064871,
    "lon": -71.5025613,
    "name": "BLACKSTONE RIVER AT WOONSOCKET, RI"
  },
  "01113895": {
    "comid": "6128415",
    "lat": 41.8884331,
    "lon": -71.38144467,
    "name": "BLACKSTONE R AT ROOSEVELT ST AT PAWTUCKET RI"
  },
  "01115500": {
    "comid": "6128987",
    "lat": 41.73287798,
    "lon": -71.5497842,
    "name": "NORTH BRANCH PAWTUXET RIVER AT FISKEVILLE, RI"
  },
  "01116000": {
    "comid": "6129689",
    "lat": 41.69010026,
    "lon": -71.5658958,
    "name": "SOUTH BRANCH PAWTUXET RIVER AT WASHINGTON, RI"
  },
  "01116500": {
    "comid": "6129655",
    "lat": 41.75093399,
    "lon": -71.4450575,
    "name": "PAWTUXET RIVER AT CRANSTON, RI"
  },
  "01117430": {
    "comid": "6141076",
    "lat": 41.44621186,
    "lon": -71.6211738,
    "name": "PAWCATUCK RIVER AT KENYON, RI"
  },
  "01117500": {
    "comid": "6141084",
    "lat": 41.44510024,
    "lon": -71.68089828,
    "name": "PAWCATUCK RIVER AT WOOD RIVER JUNCTION, RI"
  },
  "01118000": {
    "comid": "6140122",
    "lat": 41.49815516,
    "lon": -71.7164561,
    "name": "WOOD RIVER AT HOPE VALLEY, RI"
  },
  "01118500": {
    "comid": "6140952",
    "lat": 41.38371065,
    "lon": -71.8331247,
    "name": "PAWCATUCK RIVER AT WESTERLY, RI"
  },
  "01119382": {
    "comid": "6162555",
    "lat": 41.8240111,
    "lon": -72.3128472,
    "name": "WILLIMANTIC RIVER AT MERROW RD. NEAR MERROW, CT"
  },
  "01119500": {
    "comid": "6162965",
    "lat": 41.7506544,
    "lon": -72.26563469,
    "name": "WILLIMANTIC RIVER NEAR COVENTRY, CT"
  },
  "01120790": {
    "comid": "6162939",
    "lat": 41.81616944,
    "lon": -72.1061694,
    "name": "NATCHAUG RIVER AT MARCY RD. NEAR CHAPLIN, CT"
  },
  "01122000": {
    "comid": "6163159",
    "lat": 41.7201,
    "lon": -72.195575,
    "name": "NATCHAUG RIVER AT WILLIMANTIC, CT"
  },
  "01122500": {
    "comid": "6163185",
    "lat": 41.70037644,
    "lon": -72.1820223,
    "name": "SHETUCKET RIVER NEAR WILLIMANTIC, CT"
  },
  "011230695": {
    "comid": "6163249",
    "lat": 41.57000278,
    "lon": -72.0462444,
    "name": "SHETUCKET RIVER AT TAFTVILLE, CT"
  },
  "01123600": {
    "comid": "6147605",
    "lat": 42.08261944,
    "lon": -72.0583806,
    "name": "QUINEBAUG R BL WESTVILLE DAM NR SOUTHBRIDGE, MA"
  },
  "01124000": {
    "comid": "6144833",
    "lat": 42.0223189,
    "lon": -71.9556289,
    "name": "QUINEBAUG RIVER AT QUINEBAUG, CT"
  },
  "01124151": {
    "comid": "6148415",
    "lat": 41.94356667,
    "lon": -71.8995972,
    "name": "QUINEBAUG RIVER AT WEST THOMPSON, CT"
  },
  "01125000": {
    "comid": "6144829",
    "lat": 42.0509298,
    "lon": -71.8842387,
    "name": "FRENCH RIVER AT WEBSTER, MA"
  },
  "01125100": {
    "comid": "6148379",
    "lat": 41.97846389,
    "lon": -71.90051389,
    "name": "FRENCH RIVER AT NORTH GROSVENORDALE, CT"
  },
  "01125500": {
    "comid": "6148535",
    "lat": 41.909475,
    "lon": -71.91386389,
    "name": "QUINEBAUG RIVER AT PUTNAM, CT"
  },
  "01127000": {
    "comid": "6149075",
    "lat": 41.59749167,
    "lon": -71.9840944,
    "name": "QUINEBAUG RIVER AT JEWETT CITY, CT"
  },
  "01127500": {
    "comid": "6168318",
    "lat": 41.5587094,
    "lon": -72.1214666,
    "name": "YANTIC RIVER AT YANTIC, CT"
  },
  "01129200": {
    "comid": "4592169",
    "lat": 45.04032368,
    "lon": -71.4439704,
    "name": "CONNECTICUT R BELOW INDIAN STREAM NR PITTSBURG, NH"
  },
  "01129500": {
    "comid": "4593223",
    "lat": 44.74977166,
    "lon": -71.63120018,
    "name": "CONNECTICUT RIVER AT NORTH STRATFORD, NH"
  },
  "01130000": {
    "comid": "4593015",
    "lat": 44.62505316,
    "lon": -71.4689721,
    "name": "UPPER AMMONOOSUC RIVER NEAR GROVETON, NH"
  },
  "01131500": {
    "comid": "4594661",
    "lat": 44.4100591,
    "lon": -71.7206438,
    "name": "CONNECTICUT RIVER NEAR DALTON, NH"
  },
  "01133000": {
    "comid": "4570659",
    "lat": 44.63394195,
    "lon": -71.8975942,
    "name": "EAST BRANCH PASSUMPSIC RIVER NEAR EAST HAVEN, VT"
  },
  "01134500": {
    "comid": "4570675",
    "lat": 44.5117231,
    "lon": -71.8373143,
    "name": "MOOSE RIVER AT VICTORY, VT"
  },
  "01135500": {
    "comid": "4572379",
    "lat": 44.3656147,
    "lon": -72.0392613,
    "name": "PASSUMPSIC RIVER AT PASSUMPSIC, VT"
  },
  "01137500": {
    "comid": "4594599",
    "lat": 44.2686741,
    "lon": -71.6303617,
    "name": "AMMONOOSUC RIVER AT BETHLEHEM JUNCTION, NH"
  },
  "01138500": {
    "comid": "9326222",
    "lat": 44.15339689,
    "lon": -72.0417577,
    "name": "CONNECTICUT RIVER AT WELLS RIVER, VT"
  },
  "01139000": {
    "comid": "4573927",
    "lat": 44.1503413,
    "lon": -72.0650915,
    "name": "WELLS RIVER AT WELLS RIVER, VT"
  },
  "01141500": {
    "comid": "4574807",
    "lat": 43.79006996,
    "lon": -72.254813,
    "name": "OMPOMPANOOSUC RIVER AT UNION VILLAGE, VT"
  },
  "01142500": {
    "comid": "6083547",
    "lat": 43.93450969,
    "lon": -72.6578821,
    "name": "AYERS BROOK AT RANDOLPH, VT"
  },
  "01144000": {
    "comid": "6084503",
    "lat": 43.71423614,
    "lon": -72.418149,
    "name": "WHITE RIVER AT WEST HARTFORD, VT"
  },
  "01144500": {
    "comid": "9327870",
    "lat": 43.64618187,
    "lon": -72.3123134,
    "name": "CONNECTICUT RIVER AT WEST LEBANON, NH"
  },
  "01151500": {
    "comid": "6089035",
    "lat": 43.60257077,
    "lon": -72.35425819,
    "name": "OTTAUQUECHEE RIVER AT NORTH HARTLAND, VT"
  },
  "01152500": {
    "comid": "9329460",
    "lat": 43.38757327,
    "lon": -72.36203409,
    "name": "SUGAR RIVER AT WEST CLAREMONT, NH"
  },
  "01153000": {
    "comid": "6090009",
    "lat": 43.33340716,
    "lon": -72.51481258,
    "name": "BLACK RIVER AT NORTH SPRINGFIELD, VT"
  },
  "01153550": {
    "comid": "10102348",
    "lat": 43.1917433,
    "lon": -72.48508889,
    "name": "WILLIAMS RIVER NEAR ROCKINGHAM VT"
  },
  "01154500": {
    "comid": "9331546",
    "lat": 43.12618905,
    "lon": -72.4367549,
    "name": "CONNECTICUT RIVER AT NORTH WALPOLE, NH"
  },
  "01154950": {
    "comid": "9331072",
    "lat": 43.14944444,
    "lon": -72.3616667,
    "name": "COLD RIVER AT HIGH STREET, AT ALSTEAD, NH"
  },
  "01155500": {
    "comid": "10102950",
    "lat": 43.1089665,
    "lon": -72.775374,
    "name": "WEST RIVER AT JAMAICA, VT"
  },
  "01155910": {
    "comid": "10102614",
    "lat": 43.0511901,
    "lon": -72.7000939,
    "name": "WEST RIVER BELOW TOWNSHEND DAM NEAR TOWNSHEND, VT"
  },
  "01158000": {
    "comid": "6777935",
    "lat": 42.9948023,
    "lon": -72.31119719,
    "name": "ASHUELOT RIVER BELOW SURRY MT DAM, NEAR KEENE, NH"
  },
  "01158110": {
    "comid": "6778033",
    "lat": 42.9192478,
    "lon": -72.279252,
    "name": "ASHUELOT RIVER ABOVE THE BRANCH, AT KEENE, NH"
  },
  "01160350": {
    "comid": "6778181",
    "lat": 42.87147076,
    "lon": -72.3281415,
    "name": "ASHUELOT RIVER AT WEST SWANZEY, NH"
  },
  "01161000": {
    "comid": "6778371",
    "lat": 42.78591586,
    "lon": -72.4861996,
    "name": "ASHUELOT RIVER AT HINSDALE, NH"
  },
  "01161280": {
    "comid": "6778923",
    "lat": 42.6833333,
    "lon": -72.4719444,
    "name": "CONNECTICUT RIVER NEAR NORTHFIELD, MA"
  },
  "01162000": {
    "comid": "9343737",
    "lat": 42.6842527,
    "lon": -72.08341388,
    "name": "MILLERS RIVER NEAR WINCHENDON, MA"
  },
  "01166500": {
    "comid": "9343517",
    "lat": 42.5975862,
    "lon": -72.43786449,
    "name": "MILLERS RIVER AT ERVING, MA"
  },
  "01168500": {
    "comid": "10294852",
    "lat": 42.626,
    "lon": -72.8541944,
    "name": "DEERFIELD RIVER AT CHARLEMONT, MA"
  },
  "01169000": {
    "comid": "10294784",
    "lat": 42.63841775,
    "lon": -72.7250922,
    "name": "NORTH RIVER AT SHATTUCKVILLE, MA"
  },
  "01170000": {
    "comid": "10295286",
    "lat": 42.53591957,
    "lon": -72.65342328,
    "name": "DEERFIELD RIVER NEAR WEST DEERFIELD, MA"
  },
  "01170500": {
    "comid": "6778961",
    "lat": 42.5802222,
    "lon": -72.5745,
    "name": "CONNECTICUT RIVER AT MONTAGUE CITY, MA"
  },
  "01172010": {
    "comid": "7698892",
    "lat": 42.19146944,
    "lon": -72.6093111,
    "name": "CONNECTICUT R AT I-391 BRIDGE AT HOLYOKE, MA"
  },
  "01173000": {
    "comid": "7691403",
    "lat": 42.39120167,
    "lon": -72.0650774,
    "name": "WARE RIVER AT INTAKE WORKS NEAR BARRE, MA"
  },
  "01173180": {
    "comid": "7690147",
    "lat": 42.38009065,
    "lon": -72.1142451,
    "name": "WARE RIVER AT BARRE PLAINS, MA"
  },
  "01173500": {
    "comid": "7690465",
    "lat": 42.2362038,
    "lon": -72.27258047,
    "name": "WARE RIVER AT GIBBS CROSSING, MA"
  },
  "01175500": {
    "comid": "7691607",
    "lat": 42.2678699,
    "lon": -72.3325824,
    "name": "SWIFT RIVER AT WEST WARE, MA"
  },
  "01176000": {
    "comid": "7690649",
    "lat": 42.18231566,
    "lon": -72.263691,
    "name": "QUABOAG RIVER AT WEST BRIMFIELD, MA"
  },
  "01177000": {
    "comid": "7692453",
    "lat": 42.16064906,
    "lon": -72.5139756,
    "name": "CHICOPEE RIVER AT INDIAN ORCHARD, MA"
  },
  "01179500": {
    "comid": "6097249",
    "lat": 42.28786655,
    "lon": -72.8642636,
    "name": "WESTFIELD RIVER AT KNIGHTVILLE, MA"
  },
  "01181000": {
    "comid": "6096297",
    "lat": 42.23731169,
    "lon": -72.895654,
    "name": "WEST BRANCH WESTFIELD RIVER AT HUNTINGTON, MA"
  },
  "01183500": {
    "comid": "6097467",
    "lat": 42.1067602,
    "lon": -72.698981,
    "name": "WESTFIELD RIVER NEAR WESTFIELD, MA"
  },
  "01184000": {
    "comid": "7700898",
    "lat": 41.9873186,
    "lon": -72.6053669,
    "name": "CONNECTICUT RIVER AT THOMPSONVILLE, CT"
  },
  "01185500": {
    "comid": "6107147",
    "lat": 42.0788611,
    "lon": -73.0728833,
    "name": "WEST BRANCH FARMINGTON RIVER NEAR NEW BOSTON, MA"
  },
  "01186000": {
    "comid": "6111421",
    "lat": 41.9628729,
    "lon": -73.017606,
    "name": "WEST BRANCH FARMINGTON RIVER AT RIVERTON, CT"
  },
  "01186500": {
    "comid": "6111419",
    "lat": 41.9679222,
    "lon": -73.0334444,
    "name": "STILL RIVER AT ROBERTSVILLE, CT"
  },
  "01188090": {
    "comid": "6109643",
    "lat": 41.7555472,
    "lon": -72.8870417,
    "name": "FARMINGTON RIVER AT UNIONVILLE, CT"
  },
  "01189995": {
    "comid": "6109717",
    "lat": 41.9082833,
    "lon": -72.75935278,
    "name": "FARMINGTON RIVER AT TARIFFVILLE, CT"
  },
  "01192500": {
    "comid": "7700148",
    "lat": 41.7831548,
    "lon": -72.5873114,
    "name": "HOCKANUM RIVER NEAR EAST HARTFORD, CT"
  },
  "01193500": {
    "comid": "7700458",
    "lat": 41.55232124,
    "lon": -72.44925287,
    "name": "SALMON RIVER NEAR EAST HAMPTON, CT"
  },
  "01196500": {
    "comid": "6177816",
    "lat": 41.45026389,
    "lon": -72.841275,
    "name": "QUINNIPIAC RIVER AT WALLINGFORD, CT"
  },
  "01197500": {
    "comid": "7710210",
    "lat": 42.23191667,
    "lon": -73.3546667,
    "name": "HOUSATONIC RIVER NEAR GREAT BARRINGTON, MA"
  },
  "01198125": {
    "comid": "7710044",
    "lat": 42.0748138,
    "lon": -73.33344858,
    "name": "HOUSATONIC RIVER NEAR ASHLEY FALLS, MA"
  },
  "01199000": {
    "comid": "7711932",
    "lat": 41.95731548,
    "lon": -73.36928577,
    "name": "HOUSATONIC RIVER AT FALLS VILLAGE, CT"
  },
  "01200500": {
    "comid": "7713698",
    "lat": 41.6531496,
    "lon": -73.4898462,
    "name": "HOUSATONIC RIVER AT GAYLORDSVILLE, CT"
  },
  "01201487": {
    "comid": "7716694",
    "lat": 41.4658222,
    "lon": -73.40320278,
    "name": "STILL RIVER AT ROUTE 7 AT BROOKFIELD CENTER, CT"
  },
  "01203000": {
    "comid": "7713746",
    "lat": 41.54981744,
    "lon": -73.32984029,
    "name": "SHEPAUG R NR ROXBURY, CT"
  },
  "01204000": {
    "comid": "7716608",
    "lat": 41.48193889,
    "lon": -73.2245722,
    "name": "POMPERAUG RIVER AT SOUTHBURY, CT"
  },
  "01205500": {
    "comid": "7718288",
    "lat": 41.38380278,
    "lon": -73.16663889,
    "name": "HOUSATONIC RIVER AT STEVENSON, CT"
  },
  "01206900": {
    "comid": "7712706",
    "lat": 41.6737084,
    "lon": -73.0695527,
    "name": "NAUGATUCK RIVER AT THOMASTON, CT"
  },
  "01208171": {
    "comid": "7713176",
    "lat": 41.5570413,
    "lon": -73.05427449,
    "name": "NAUGATUCK RIVER AT WATERBURY, CT"
  },
  "01208500": {
    "comid": "7718060",
    "lat": 41.4423,
    "lon": -73.0622833,
    "name": "NAUGATUCK RIVER AT BEACON FALLS, CT"
  },
  "01209500": {
    "comid": "7732315",
    "lat": 41.17073056,
    "lon": -73.3648167,
    "name": "SAUGATUCK RIVER NEAR WESTPORT, CT"
  },
  "01318500": {
    "comid": "22307223",
    "lat": 43.31888889,
    "lon": -73.8441667,
    "name": "HUDSON RIVER AT HADLEY NY"
  },
  "01325000": {
    "comid": "22294854",
    "lat": 43.31138889,
    "lon": -73.8672222,
    "name": "SACANDAGA RIVER AT STEWARTS BRIDGE NR HADLEY NY"
  },
  "01327750": {
    "comid": "932020139",
    "lat": 43.26938889,
    "lon": -73.5958333,
    "name": "HUDSON RIVER AT FORT EDWARD NY"
  },
  "01331095": null,
  "01332500": {
    "comid": "22290185",
    "lat": 42.70035897,
    "lon": -73.158994,
    "name": "HOOSIC RIVER NEAR WILLIAMSTOWN, MA"
  },
  "01334000": {
    "comid": "22289963",
    "lat": 42.91285604,
    "lon": -73.2564981,
    "name": "WALLOOMSAC RIVER NEAR NORTH BENNINGTON, VT"
  },
  "01334500": {
    "comid": "22290307",
    "lat": 42.9385833,
    "lon": -73.3769444,
    "name": "HOOSIC RIVER NEAR EAGLE BRIDGE NY"
  },
  "01335754": {
    "comid": "22290555",
    "lat": 42.82916667,
    "lon": -73.6661111,
    "name": "HUDSON RIVER ABOVE LOCK 1 NEAR WATERFORD NY"
  },
  "01347000": {
    "comid": "22741627",
    "lat": 43.0147222,
    "lon": -74.7794444,
    "name": "MOHAWK RIVER NEAR LITTLE FALLS NY"
  },
  "01349527": null,
  "01354083": {
    "comid": "22745845",
    "lat": 42.934,
    "lon": -74.1918611,
    "name": "MOHAWK RIVER AT AMSTERDAM NY"
  },
  "01354500": {
    "comid": "22744303",
    "lat": 42.83052778,
    "lon": -73.93075,
    "name": "MOHAWK RIVER AT FREEMAN'S BRIDGE AT SCHENECTADY NY"
  },
  "01357500": {
    "comid": "22751957",
    "lat": 42.78538889,
    "lon": -73.70777778,
    "name": "MOHAWK RIVER AT COHOES NY"
  },
  "01358000": null,
  "01378500": {
    "comid": "6249556",
    "lat": 40.9483333,
    "lon": -74.0266667,
    "name": "Hackensack River at New Milford NJ"
  },
  "01379500": {
    "comid": "6250836",
    "lat": 40.7261111,
    "lon": -74.3897222,
    "name": "Passaic River near Chatham NJ"
  },
  "01380450": {
    "comid": "6250646",
    "lat": 40.9075,
    "lon": -74.4191667,
    "name": "Rockaway River at Main Street at Boonton NJ"
  },
  "01381000": {
    "comid": "6249860",
    "lat": 40.89694444,
    "lon": -74.3947222,
    "name": "Rockaway River below Reservoir at Boonton NJ"
  },
  "01381800": {
    "comid": "6249998",
    "lat": 40.845,
    "lon": -74.3472222,
    "name": "Whippany River near Pine Brook NJ"
  },
  "01381900": {
    "comid": "6250690",
    "lat": 40.8625,
    "lon": -74.3216667,
    "name": "Passaic River at Pine Brook NJ"
  },
  "01382500": {
    "comid": "6246362",
    "lat": 41.0183333,
    "lon": -74.4011111,
    "name": "Pequannock River at Macopin Intake Dam NJ"
  },
  "01382800": {
    "comid": "6249402",
    "lat": 40.9986111,
    "lon": -74.2980556,
    "name": "Pequannock River at Riverdale NJ"
  },
  "01387000": {
    "comid": "932030153",
    "lat": 41.04416667,
    "lon": -74.2930556,
    "name": "Wanaque River at Wanaque NJ"
  },
  "01387500": {
    "comid": "6246322",
    "lat": 41.09805556,
    "lon": -74.16277778,
    "name": "Ramapo River near Mahwah NJ"
  },
  "01387905": {
    "comid": "6246098",
    "lat": 41.0275,
    "lon": -74.25,
    "name": "Ramapo River at West Oakland Avenue at Oakland NJ"
  },
  "01388000": {
    "comid": "6250614",
    "lat": 40.99194444,
    "lon": -74.28,
    "name": "Ramapo River at Pompton Lakes NJ"
  },
  "01388500": {
    "comid": "6249470",
    "lat": 40.9697222,
    "lon": -74.2819444,
    "name": "Pompton River at Pompton Plains NJ"
  },
  "01389010": null,
  "01389500": {
    "comid": "6250676",
    "lat": 40.8847222,
    "lon": -74.2261111,
    "name": "Passaic River at Little Falls NJ"
  },
  "01389890": {
    "comid": "6251098",
    "lat": 40.8858333,
    "lon": -74.1283333,
    "name": "Passaic River at Dundee Dam at Clifton NJ"
  },
  "01396500": {
    "comid": "9513810",
    "lat": 40.67777778,
    "lon": -74.8791667,
    "name": "South Branch Raritan River near High Bridge NJ"
  },
  "01397000": {
    "comid": "9513836",
    "lat": 40.5722222,
    "lon": -74.8680556,
    "name": "South Branch Raritan River at Stanton NJ"
  },
  "01400000": {
    "comid": "9513840",
    "lat": 40.57055556,
    "lon": -74.6791667,
    "name": "North Branch Raritan River near Raritan NJ"
  },
  "01400500": {
    "comid": "9513852",
    "lat": 40.55555556,
    "lon": -74.58277778,
    "name": "Raritan River at Manville NJ"
  },
  "01402000": {
    "comid": "9514706",
    "lat": 40.475,
    "lon": -74.5758333,
    "name": "Millstone River at Blackwells Mills NJ"
  },
  "01403060": {
    "comid": "9513378",
    "lat": 40.5511111,
    "lon": -74.5483333,
    "name": "Raritan River below Calco Dam at Bound Brook NJ"
  },
  "01408029": {
    "comid": "9441199",
    "lat": 40.14666667,
    "lon": -74.1222222,
    "name": "Manasquan River near Allenwood NJ"
  },
  "01408500": {
    "comid": "9453743",
    "lat": 39.98638889,
    "lon": -74.2233333,
    "name": "Toms River near Toms River NJ"
  },
  "01409810": {
    "comid": "9454449",
    "lat": 39.68805556,
    "lon": -74.5480556,
    "name": "West Branch Wading River near Jenkins NJ"
  },
  "01410000": {
    "comid": "9455279",
    "lat": 39.66394444,
    "lon": -74.5234444,
    "name": "Oswego River at Harrisville NJ"
  },
  "01411500": {
    "comid": "9485398",
    "lat": 39.49555556,
    "lon": -75.0769444,
    "name": "Maurice River at Norma NJ"
  },
  "01413500": {
    "comid": "1748583",
    "lat": 42.1447222,
    "lon": -74.6536111,
    "name": "EAST BRANCH DELAWARE RIVER AT MARGARETVILLE NY"
  },
  "01421000": {
    "comid": "1752137",
    "lat": 41.97327778,
    "lon": -75.1747222,
    "name": "EAST BRANCH DELAWARE RIVER AT FISHS EDDY NY"
  },
  "01427207": {
    "comid": "2617324",
    "lat": 41.86727778,
    "lon": -75.21375,
    "name": "DELAWARE RIVER AT LORDVILLE NY"
  },
  "01427510": {
    "comid": "2617456",
    "lat": 41.75675,
    "lon": -75.0574167,
    "name": "DELAWARE RIVER AT CALLICOON NY"
  },
  "01428500": {
    "comid": "2615318",
    "lat": 41.50875,
    "lon": -74.9860556,
    "name": "DELAWARE R ABOVE LACKAWAXEN R NEAR BARRYVILLE NY"
  },
  "01428750": {
    "comid": "2739748",
    "lat": 41.67452998,
    "lon": -75.37601299,
    "name": "West Branch Lackawaxen River near Aldenville, PA"
  },
  "01432160": null,
  "01434000": {
    "comid": "4151524",
    "lat": 41.3706493,
    "lon": -74.6973853,
    "name": "DELAWARE RIVER AT PORT JERVIS NY"
  },
  "01438500": {
    "comid": "4151628",
    "lat": 41.30916667,
    "lon": -74.79527778,
    "name": "Delaware River at Montague NJ"
  },
  "01440000": {
    "comid": "4151302",
    "lat": 41.1061111,
    "lon": -74.9525,
    "name": "Flat Brook near Flatbrookville NJ"
  },
  "01443500": {
    "comid": "2586771",
    "lat": 40.9808333,
    "lon": -74.9533333,
    "name": "Paulins Kill at Blairstown NJ"
  },
  "01445500": {
    "comid": "2586809",
    "lat": 40.83055556,
    "lon": -74.97777778,
    "name": "Pequest River at Pequest NJ"
  },
  "01446500": {
    "comid": "2588381",
    "lat": 40.82638889,
    "lon": -75.0825,
    "name": "Delaware River at Belvidere NJ"
  },
  "01457000": {
    "comid": "2588261",
    "lat": 40.6722222,
    "lon": -75.0608333,
    "name": "Musconetcong River near Bloomsbury NJ"
  },
  "01457500": {
    "comid": "2588479",
    "lat": 40.5947222,
    "lon": -75.1897222,
    "name": "Delaware River at Riegelsville NJ"
  },
  "01463500": {
    "comid": "2590277",
    "lat": 40.22166667,
    "lon": -74.7780556,
    "name": "Delaware River at Trenton NJ"
  },
  "01464000": {
    "comid": "2590137",
    "lat": 40.22416667,
    "lon": -74.7491667,
    "name": "Assunpink Creek at Trenton NJ"
  },
  "01464500": {
    "comid": "4481607",
    "lat": 40.1372222,
    "lon": -74.6,
    "name": "Crosswicks Creek at Extonville NJ"
  },
  "01465850": {
    "comid": "4492122",
    "lat": 39.94,
    "lon": -74.7630556,
    "name": "South Branch Rancocas Creek at Vincentown NJ"
  },
  "01466900": {
    "comid": "4491946",
    "lat": 39.9561111,
    "lon": -74.62777778,
    "name": "Greenwood Branch at New Lisbon NJ"
  },
  "01467000": {
    "comid": "4491898",
    "lat": 39.97,
    "lon": -74.6844444,
    "name": "North Branch Rancocas Creek at Pemberton NJ"
  },
  "01473500": {
    "comid": "4782491",
    "lat": 40.11555556,
    "lon": -75.3561111,
    "name": "Schuylkill River at Norristown, PA"
  },
  "01474500": {
    "comid": "4784831",
    "lat": 39.9678905,
    "lon": -75.1885123,
    "name": "Schuylkill River at Philadelphia, PA"
  },
  "01478650": {
    "comid": "4651944",
    "lat": 39.6892222,
    "lon": -75.74875,
    "name": "WHITE CLAY CREEK AT NEWARK, DE"
  },
  "01479000": {
    "comid": "4651938",
    "lat": 39.6992222,
    "lon": -75.67502778,
    "name": "WHITE CLAY CREEK NEAR NEWARK, DE"
  },
  "01480015": {
    "comid": "4651930",
    "lat": 39.71575,
    "lon": -75.6399444,
    "name": "RED CLAY CREEK NEAR STANTON, DE"
  },
  "01481500": {
    "comid": "4655440",
    "lat": 39.7695,
    "lon": -75.5766944,
    "name": "BRANDYWINE CREEK AT WILMINGTON, DE"
  },
  "01484525": {
    "comid": "8407597",
    "lat": 38.59455556,
    "lon": -75.29102778,
    "name": "MILLSBORO POND OUTLET AT MILLSBORO, DE"
  },
  "01487000": {
    "comid": "8392898",
    "lat": 38.7283333,
    "lon": -75.5618611,
    "name": "NANTICOKE RIVER NEAR BRIDGEVILLE, DE"
  },
  "01491000": {
    "comid": "9407484",
    "lat": 38.99719444,
    "lon": -75.7858056,
    "name": "CHOPTANK RIVER NEAR GREENSBORO, MD"
  },
  "01500500": {
    "comid": "8086851",
    "lat": 42.3215,
    "lon": -75.31638889,
    "name": "SUSQUEHANNA RIVER AT UNADILLA NY"
  },
  "01502632": {
    "comid": "8087855",
    "lat": 42.2918333,
    "lon": -75.47677778,
    "name": "SUSQUEHANNA RIVER AT BAINBRIDGE NY"
  },
  "01502731": {
    "comid": "8088061",
    "lat": 42.07405556,
    "lon": -75.6369444,
    "name": "SUSQUEHANNA RIVER AT WINDSOR NY"
  },
  "01503000": {
    "comid": "8088149",
    "lat": 42.03555556,
    "lon": -75.80227778,
    "name": "SUSQUEHANNA RIVER AT CONKLIN NY"
  },
  "01512500": {
    "comid": "9423965",
    "lat": 42.21805556,
    "lon": -75.84813889,
    "name": "CHENANGO RIVER NEAR CHENANGO FORKS NY"
  },
  "01513500": {
    "comid": "8102921",
    "lat": 42.09166667,
    "lon": -76.05652778,
    "name": "SUSQUEHANNA RIVER AT VESTAL NY"
  },
  "01513831": {
    "comid": "8102961",
    "lat": 42.09613889,
    "lon": -76.2656944,
    "name": "SUSQUEHANNA RIVER AT OWEGO NY"
  },
  "01515000": null,
  "01526500": {
    "comid": "8110941",
    "lat": 42.1211111,
    "lon": -77.1291667,
    "name": "TIOGA RIVER NEAR ERWINS NY"
  },
  "01529950": {
    "comid": "8119227",
    "lat": 42.14641667,
    "lon": -77.0575,
    "name": "CHEMUNG RIVER AT CORNING NY"
  },
  "01530332": {
    "comid": "8118423",
    "lat": 42.08638889,
    "lon": -76.8011111,
    "name": "CHEMUNG RIVER AT ELMIRA NY"
  },
  "01531000": {
    "comid": "8118503",
    "lat": 42.0022222,
    "lon": -76.6347222,
    "name": "CHEMUNG RIVER AT CHEMUNG NY"
  },
  "01531500": {
    "comid": "4199356",
    "lat": 41.76535278,
    "lon": -76.4407743,
    "name": "Susquehanna River at Towanda, PA"
  },
  "01533400": {
    "comid": "4199592",
    "lat": 41.60729826,
    "lon": -76.0502031,
    "name": "Susquehanna River at Meshoppen, PA"
  },
  "01536500": {
    "comid": "2601199",
    "lat": 41.2509149,
    "lon": -75.8807518,
    "name": "Susquehanna River at Wilkes-Barre, PA"
  },
  "01538700": {
    "comid": "2604943",
    "lat": 40.9939757,
    "lon": -76.4399451,
    "name": "Susquehanna River at Bloomsburg, PA"
  },
  "01540500": {
    "comid": "2604993",
    "lat": 40.95814218,
    "lon": -76.6191222,
    "name": "Susquehanna River at Danville, PA"
  },
  "01545500": {
    "comid": "8135528",
    "lat": 41.32367797,
    "lon": -77.7499869,
    "name": "West Branch Susquehanna River at Renovo, PA"
  },
  "01545800": {
    "comid": "8137096",
    "lat": 41.1381245,
    "lon": -77.441926,
    "name": "WB Susquehanna River at Lock Haven, PA"
  },
  "01549760": {
    "comid": "8153511",
    "lat": 41.2022951,
    "lon": -77.2510812,
    "name": "WB Susquehanna River at Jersey Shore, PA"
  },
  "01551500": {
    "comid": "8152471",
    "lat": 41.23618985,
    "lon": -76.996634,
    "name": "WB Susquehanna River at Williamsport, PA"
  },
  "01553025": {
    "comid": "8152521",
    "lat": 41.10805556,
    "lon": -76.89,
    "name": "West Branch Susquehanna River at Allenwood, PA"
  },
  "01553500": {
    "comid": "8153799",
    "lat": 40.96758498,
    "lon": -76.8763543,
    "name": "West Branch Susquehanna River at Lewisburg, PA"
  },
  "01554000": {
    "comid": "932050014",
    "lat": 40.8345293,
    "lon": -76.8266349,
    "name": "Susquehanna River at Sunbury, PA"
  },
  "01563500": {
    "comid": "4700071",
    "lat": 40.39229876,
    "lon": -77.93499988,
    "name": "Juniata River at Mapleton Depot, PA"
  },
  "01564895": {
    "comid": "4697593",
    "lat": 40.59451734,
    "lon": -77.5824931,
    "name": "Juniata River at Lewistown, PA"
  },
  "01567000": {
    "comid": "4699925",
    "lat": 40.47841677,
    "lon": -77.1291484,
    "name": "Juniata River at Newport, PA"
  },
  "01570500": {
    "comid": "4710000",
    "lat": 40.25481164,
    "lon": -76.8860846,
    "name": "Susquehanna River at Harrisburg, PA"
  },
  "01576000": {
    "comid": "4722221",
    "lat": 40.0545413,
    "lon": -76.5307992,
    "name": "Susquehanna River at Marietta, PA"
  },
  "01578310": null,
  "01578475": {
    "comid": "4726273",
    "lat": 39.7067746,
    "lon": -76.1152286,
    "name": "Octoraro Creek near Richardsmere, MD"
  },
  "01580000": {
    "comid": "4726301",
    "lat": 39.6299722,
    "lon": -76.4033056,
    "name": "DEER CREEK AT ROCKS, MD"
  },
  "01580520": {
    "comid": "4726307",
    "lat": 39.61744444,
    "lon": -76.1918611,
    "name": "DEER CREEK NEAR DARLINGTON, MD"
  },
  "01582500": {
    "comid": "11687360",
    "lat": 39.54969444,
    "lon": -76.6361111,
    "name": "GUNPOWDER FALLS AT GLENCOE, MD"
  },
  "01589000": {
    "comid": "11689718",
    "lat": 39.31030556,
    "lon": -76.7924167,
    "name": "PATAPSCO RIVER AT HOLLOFIELD, MD"
  },
  "01589025": {
    "comid": "11689730",
    "lat": 39.25125,
    "lon": -76.76377778,
    "name": "PATAPSCO RIVER NEAR CATONSVILLE, MD"
  },
  "01589035": {
    "comid": "11689272",
    "lat": 39.2273333,
    "lon": -76.723,
    "name": "PATAPSCO RIVER NEAR ELKRIDGE, MD"
  },
  "01592500": {
    "comid": "11905746",
    "lat": 39.1157222,
    "lon": -76.87375,
    "name": "PATUXENT RIV NEAR LAUREL, MD"
  },
  "01594000": {
    "comid": "11905730",
    "lat": 39.13441667,
    "lon": -76.8161667,
    "name": "LITTLE PATUXENT RIVER AT SAVAGE, MD"
  },
  "01594440": {
    "comid": "11907758",
    "lat": 38.95591667,
    "lon": -76.6936944,
    "name": "PATUXENT RIVER NEAR BOWIE, MD"
  },
  "01594526": {
    "comid": "11908364",
    "lat": 38.8142222,
    "lon": -76.7487222,
    "name": "WESTERN BRANCH AT UPPER MARLBORO, MD"
  },
  "01595500": {
    "comid": "14365188",
    "lat": 39.39388889,
    "lon": -79.1816944,
    "name": "NORTH BRANCH POTOMAC RIVER AT KITZMILLER, MD"
  },
  "01597500": {
    "comid": "14364042",
    "lat": 39.50275,
    "lon": -79.1239722,
    "name": "SAVAGE RIV BL SAVAGE RIV DAM NEAR BLOOMINGTON, MD"
  },
  "01598500": {
    "comid": "14364980",
    "lat": 39.4789722,
    "lon": -79.0637778,
    "name": "NORTH BRANCH POTOMAC RIVER AT LUKE, MD"
  },
  "01601500": {
    "comid": "14363456",
    "lat": 39.6696111,
    "lon": -78.7880278,
    "name": "WILLS CREEK NEAR CUMBERLAND, MD"
  },
  "01603000": {
    "comid": "14363552",
    "lat": 39.62180556,
    "lon": -78.7734167,
    "name": "NORTH BRANCH POTOMAC RIVER NEAR CUMBERLAND, MD"
  },
  "01605500": {
    "comid": "8423458",
    "lat": 38.63567247,
    "lon": -79.3378199,
    "name": "SOUTH BRANCH POTOMAC RIVER AT FRANKLIN, WV"
  },
  "01606500": {
    "comid": "8423278",
    "lat": 38.99122107,
    "lon": -79.17587059,
    "name": "SOUTH BRANCH POTOMAC RIVER NEAR PETERSBURG, WV"
  },
  "01608500": {
    "comid": "8420360",
    "lat": 39.44703879,
    "lon": -78.6541817,
    "name": "SOUTH BRANCH POTOMAC RIVER NEAR SPRINGFIELD, WV"
  },
  "01609000": {
    "comid": "8431428",
    "lat": 39.5532222,
    "lon": -78.555,
    "name": "TOWN CREEK NEAR OLDTOWN, MD"
  },
  "01610000": {
    "comid": "8431820",
    "lat": 39.5388611,
    "lon": -78.4556111,
    "name": "POTOMAC RIVER AT PAW PAW, WV"
  },
  "01610155": {
    "comid": "8431622",
    "lat": 39.64952778,
    "lon": -78.34413889,
    "name": "SIDELING HILL CREEK NEAR BELLEGROVE, MD"
  },
  "01611500": {
    "comid": "8431736",
    "lat": 39.5823158,
    "lon": -78.3097312,
    "name": "CACAPON RIVER NEAR GREAT CACAPON, WV"
  },
  "01613000": {
    "comid": "5893338",
    "lat": 39.69755556,
    "lon": -78.17788889,
    "name": "POTOMAC RIVER AT HANCOCK, MD"
  },
  "01613095": {
    "comid": "5893280",
    "lat": 39.7063611,
    "lon": -78.15275,
    "name": "TONOLOWAY CREEK NEAR HANCOCK, MD"
  },
  "01613525": {
    "comid": "5892862",
    "lat": 39.67627778,
    "lon": -78.0425278,
    "name": "LICKING CREEK AT PECTONVILLE, MD"
  },
  "01614500": {
    "comid": "5891232",
    "lat": 39.71638889,
    "lon": -77.8247778,
    "name": "CONOCOCHEAGUE CREEK AT FAIRVIEW, MD"
  },
  "01618000": {
    "comid": "5894792",
    "lat": 39.4347222,
    "lon": -77.80138889,
    "name": "POTOMAC RIVER AT SHEPHERDSTOWN, WV"
  },
  "01619000": {
    "comid": "5891210",
    "lat": 39.71625,
    "lon": -77.60663889,
    "name": "ANTIETAM CREEK NEAR WAYNESBORO, PA"
  },
  "01619500": null,
  "01628500": {
    "comid": "5908723",
    "lat": 38.32262796,
    "lon": -78.7547457,
    "name": "S F SHENANDOAH RIVER NEAR LYNNWOOD, VA"
  },
  "01629500": {
    "comid": "5907167",
    "lat": 38.6462305,
    "lon": -78.5347329,
    "name": "S F SHENANDOAH RIVER NEAR LURAY, VA"
  },
  "01631000": {
    "comid": "5907079",
    "lat": 38.91400059,
    "lon": -78.21083388,
    "name": "S F SHENANDOAH RIVER AT FRONT ROYAL, VA"
  },
  "01632000": {
    "comid": "8441037",
    "lat": 38.63706254,
    "lon": -78.852803,
    "name": "N F SHENANDOAH RIVER AT COOTES STORE, VA"
  },
  "01634000": {
    "comid": "8441253",
    "lat": 38.9767759,
    "lon": -78.3361152,
    "name": "N F SHENANDOAH RIVER NEAR STRASBURG, VA"
  },
  "01636500": {
    "comid": "8445070",
    "lat": 39.28204576,
    "lon": -77.7891606,
    "name": "SHENANDOAH RIVER AT MILLVILLE, WV"
  },
  "01638500": {
    "comid": "4507348",
    "lat": 39.2735833,
    "lon": -77.5431111,
    "name": "POTOMAC RIVER AT POINT OF ROCKS, MD"
  },
  "01639000": {
    "comid": "8448416",
    "lat": 39.67905556,
    "lon": -77.23452778,
    "name": "MONOCACY RIVER AT BRIDGEPORT, MD"
  },
  "01639500": {
    "comid": "8449082",
    "lat": 39.6123611,
    "lon": -77.2374444,
    "name": "BIG PIPE CREEK AT BRUCEVILLE, MD"
  },
  "01642190": {
    "comid": "8450100",
    "lat": 39.4435833,
    "lon": -77.38227778,
    "name": "MONOCACY RIVER AT MONOCACY BLVD AT FREDERICK, MD"
  },
  "01643000": {
    "comid": "8450266",
    "lat": 39.4028333,
    "lon": -77.3660833,
    "name": "MONOCACY RIVER AT JUG BRIDGE NEAR FREDERICK, MD"
  },
  "01643580": null,
  "01645000": {
    "comid": "4506374",
    "lat": 39.1280833,
    "lon": -77.33577778,
    "name": "SENECA CREEK AT DAWSONVILLE, MD"
  },
  "01646500": {
    "comid": "4512772",
    "lat": 38.94977778,
    "lon": -77.12763889,
    "name": "POTOMAC RIVER NEAR WASH, DC LITTLE FALLS PUMP STA"
  },
  "01646502": {
    "comid": "4512772",
    "lat": 38.94977778,
    "lon": -77.12763889,
    "name": "POTOMAC RIVER, ADJUSTED, NEAR WASH, DC"
  },
  "01648000": {
    "comid": "22338431",
    "lat": 38.9725,
    "lon": -77.04,
    "name": "ROCK CREEK AT SHERRILL DRIVE WASHINGTON, DC"
  },
  "01648010": {
    "comid": "22338431",
    "lat": 38.96016667,
    "lon": -77.0420556,
    "name": "ROCK CREEK AT JOYCE RD WASHINGTON, DC"
  },
  "01664000": {
    "comid": "8465429",
    "lat": 38.53067996,
    "lon": -77.8136045,
    "name": "RAPPAHANNOCK RIVER AT REMINGTON, VA"
  },
  "01668000": {
    "comid": "8476948",
    "lat": 38.30846178,
    "lon": -77.52915268,
    "name": "RAPPAHANNOCK RIVER NEAR FREDERICKSBURG, VA"
  },
  "01673000": {
    "comid": "8506380",
    "lat": 37.76764189,
    "lon": -77.3322018,
    "name": "PAMUNKEY RIVER NEAR HANOVER, VA"
  },
  "01674500": {
    "comid": "8494082",
    "lat": 37.88388889,
    "lon": -77.16527778,
    "name": "MATTAPONI RIVER NEAR BEULAHVILLE, VA"
  },
  "02013100": {
    "comid": "8524321",
    "lat": 37.7887362,
    "lon": -80.00061319,
    "name": "JACKSON RIVER BL DUNLAP CREEK AT COVINGTON, VA"
  },
  "02016500": {
    "comid": "8523633",
    "lat": 37.77374009,
    "lon": -79.7844925,
    "name": "JAMES RIVER AT LICK RUN, VA"
  },
  "02019500": {
    "comid": "8523653",
    "lat": 37.53068995,
    "lon": -79.6789281,
    "name": "JAMES RIVER AT BUCHANAN, VA"
  },
  "02024000": {
    "comid": "8540133",
    "lat": 37.76263275,
    "lon": -79.3914251,
    "name": "MAURY RIVER NEAR BUENA VISTA, VA"
  },
  "02024752": {
    "comid": "8550041",
    "lat": 37.55541524,
    "lon": -79.3672547,
    "name": "JAMES RIVER AT BLUE RIDGE PKWY NR BIG ISLAND, VA"
  },
  "02025500": {
    "comid": "8550147",
    "lat": 37.5012508,
    "lon": -79.2625287,
    "name": "JAMES RIVER AT HOLCOMB ROCK, VA"
  },
  "02026000": {
    "comid": "8547851",
    "lat": 37.5362539,
    "lon": -78.8294611,
    "name": "JAMES RIVER AT BENT CREEK, VA"
  },
  "02029000": {
    "comid": "8548103",
    "lat": 37.7973651,
    "lon": -78.491398,
    "name": "JAMES RIVER AT SCOTTSVILLE, VA"
  },
  "02034000": {
    "comid": "8568309",
    "lat": 37.8579192,
    "lon": -78.2658373,
    "name": "RIVANNA RIVER AT PALMYRA, VA"
  },
  "02035000": {
    "comid": "8575903",
    "lat": 37.67097957,
    "lon": -78.0858328,
    "name": "JAMES RIVER AT CARTERSVILLE, VA"
  },
  "02037500": {
    "comid": "8574021",
    "lat": 37.5632022,
    "lon": -77.5469314,
    "name": "JAMES RIVER NEAR RICHMOND, VA"
  },
  "02040000": {
    "comid": "8606911",
    "lat": 37.42153845,
    "lon": -77.8588876,
    "name": "APPOMATTOX RIVER AT MATTOAX, VA"
  },
  "02040892": null,
  "02041650": {
    "comid": "8608039",
    "lat": 37.2251505,
    "lon": -77.475263,
    "name": "APPOMATTOX RIVER AT MATOACA, VA"
  },
  "02047000": {
    "comid": "8725915",
    "lat": 36.7704276,
    "lon": -77.1660778,
    "name": "NOTTOWAY RIVER NEAR SEBRELL, VA"
  },
  "02049500": {
    "comid": "11585318",
    "lat": 36.7626499,
    "lon": -76.89829369,
    "name": "BLACKWATER RIVER NEAR FRANKLIN, VA"
  },
  "02052000": {
    "comid": "8742283",
    "lat": 36.69014954,
    "lon": -77.5405364,
    "name": "MEHERRIN RIVER AT EMPORIA, VA"
  },
  "02052090": {
    "comid": "26815730",
    "lat": 36.57,
    "lon": -77.36138889,
    "name": "MEHERRIN RIVER NEAR BRYANTS CORNER, VA"
  },
  "02053200": {
    "comid": "8746117",
    "lat": 36.3708333,
    "lon": -77.0255556,
    "name": "POTECASI CREEK NEAR UNION, NC"
  },
  "02060500": {
    "comid": "8626293",
    "lat": 37.10569444,
    "lon": -79.28563889,
    "name": "ROANOKE RIVER AT ALTAVISTA, VA"
  },
  "02062500": {
    "comid": "8648984",
    "lat": 37.03944444,
    "lon": -78.9457222,
    "name": "ROANOKE (STAUNTON) RIVER AT BROOKNEAL, VA"
  },
  "02066000": {
    "comid": "8653008",
    "lat": 36.91514189,
    "lon": -78.7408384,
    "name": "ROANOKE (STAUNTON) RIVER AT RANDOLPH, VA"
  },
  "02071000": {
    "comid": "8677803",
    "lat": 36.4125,
    "lon": -79.8261111,
    "name": "DAN RIVER NEAR WENTWORTH, NC"
  },
  "02075045": {
    "comid": "8696453",
    "lat": 36.56263889,
    "lon": -79.369744,
    "name": "DAN RIVER AT STP NEAR DANVILLE, VA"
  },
  "02075500": {
    "comid": "8696811",
    "lat": 36.64236056,
    "lon": -79.089459,
    "name": "DAN RIVER AT PACES, VA"
  },
  "02076000": {
    "comid": "8693827",
    "lat": 36.6932222,
    "lon": -78.9004167,
    "name": "DAN RIVER AT SOUTH BOSTON, VA"
  },
  "02080500": {
    "comid": "10451190",
    "lat": 36.46,
    "lon": -77.6336111,
    "name": "ROANOKE RIVER AT ROANOKE RAPIDS, NC"
  },
  "02081942": {
    "comid": "8764333",
    "lat": 35.8820861,
    "lon": -78.08953889,
    "name": "TAR RIVER AT NC-581 NEAR SPRING HOPE, NC"
  },
  "0208250410": null,
  "02082585": {
    "comid": "8762349",
    "lat": 35.9547222,
    "lon": -77.7872222,
    "name": "TAR RIVER AT NC 97 AT ROCKY MOUNT, NC"
  },
  "02083500": {
    "comid": "3350831",
    "lat": 35.89444444,
    "lon": -77.5330556,
    "name": "TAR RIVER AT TARBORO, NC"
  },
  "02084000": {
    "comid": "3350921",
    "lat": 35.61666667,
    "lon": -77.37277778,
    "name": "TAR RIVER AT GREENVILLE, NC"
  },
  "02087183": {
    "comid": "8782661",
    "lat": 35.94,
    "lon": -78.5808333,
    "name": "NEUSE RIVER NEAR FALLS, NC"
  },
  "02087500": {
    "comid": "8786017",
    "lat": 35.6472222,
    "lon": -78.4052778,
    "name": "NEUSE RIVER NEAR CLAYTON, NC"
  },
  "02089000": {
    "comid": "11239411",
    "lat": 35.3375,
    "lon": -77.9975,
    "name": "NEUSE RIVER NEAR GOLDSBORO, NC"
  },
  "02089500": {
    "comid": "11239465",
    "lat": 35.25777778,
    "lon": -77.5855556,
    "name": "NEUSE RIVER AT KINSTON, NC"
  },
  "02091500": {
    "comid": "11574598",
    "lat": 35.42888889,
    "lon": -77.5825,
    "name": "CONTENTNEA CREEK AT HOOKERTON, NC"
  },
  "02091814": {
    "comid": "11239241",
    "lat": 35.31388889,
    "lon": -77.30277778,
    "name": "NEUSE RIVER NEAR FORT BARNWELL, NC"
  },
  "02096960": {
    "comid": "8897934",
    "lat": 35.76527778,
    "lon": -79.1358333,
    "name": "HAW RIVER NEAR BYNUM, NC"
  },
  "02098206": {
    "comid": "26325150",
    "lat": 35.6322222,
    "lon": -79.06,
    "name": "HAW RIVER NEAR MONCURE, NC"
  },
  "02102000": {
    "comid": "8872370",
    "lat": 35.62694444,
    "lon": -79.1161111,
    "name": "DEEP RIVER AT MONCURE, NC"
  },
  "02102500": {
    "comid": "8846907",
    "lat": 35.4061111,
    "lon": -78.8133333,
    "name": "CAPE FEAR RIVER AT LILLINGTON, NC"
  },
  "02105500": {
    "comid": "8831710",
    "lat": 34.83555556,
    "lon": -78.8236111,
    "name": "CAPE FEAR R AT WILM O HUSKE LOCK NR TARHEEL, NC"
  },
  "02105769": {
    "comid": "8834930",
    "lat": 34.40444444,
    "lon": -78.2936111,
    "name": "CAPE FEAR R AT LOCK 1 NR KELLY, NC"
  },
  "02106500": {
    "comid": "8816187",
    "lat": 34.755,
    "lon": -78.2886111,
    "name": "BLACK RIVER NEAR TOMAHAWK, NC"
  },
  "02109500": {
    "comid": "9064270",
    "lat": 34.095,
    "lon": -78.5483333,
    "name": "WACCAMAW RIVER AT FREELAND, NC"
  },
  "02110500": {
    "comid": "9069040",
    "lat": 33.9126719,
    "lon": -78.7150175,
    "name": "WACCAMAW RIVER NEAR LONGS, SC"
  },
  "02110550": {
    "comid": "9069104",
    "lat": 33.8508333,
    "lon": -78.8972222,
    "name": "WACCAMAW RIVER ABOVE CONWAY, SC"
  },
  "02110704": {
    "comid": "9071758",
    "lat": 33.8329481,
    "lon": -79.0436473,
    "name": "WACCAMAW RIVER AT CONWAY MARINA AT CONWAY, SC"
  },
  "02112250": {
    "comid": "9249426",
    "lat": 36.24103889,
    "lon": -80.8491,
    "name": "YADKIN RIVER AT ELKIN, NC"
  },
  "02115360": null,
  "02116500": {
    "comid": "9252852",
    "lat": 35.85666667,
    "lon": -80.3869444,
    "name": "YADKIN RIVER AT YADKIN COLLEGE, NC"
  },
  "0212378405": {
    "comid": "9211976",
    "lat": 35.20066667,
    "lon": -80.0618056,
    "name": "PEE DEE R AT HWY731 BL LK TILLERY NR NORWOOD, NC"
  },
  "02126000": {
    "comid": "9202827",
    "lat": 35.1569972,
    "lon": -80.1657722,
    "name": "ROCKY RIVER NEAR NORWOOD, NC"
  },
  "02129000": {
    "comid": "9167976",
    "lat": 34.9458333,
    "lon": -79.8697222,
    "name": "PEE DEE R NR ROCKINGHAM, NC"
  },
  "02130000": {
    "comid": "9168578",
    "lat": 34.70848979,
    "lon": -79.8761747,
    "name": "PEE DEE RIVER AT CHERAW, SC"
  },
  "02130561": {
    "comid": "9168348",
    "lat": 34.60626798,
    "lon": -79.7883963,
    "name": "PEE DEE RIVER NR BENNETTSVILLE, SC"
  },
  "02131000": {
    "comid": "9175254",
    "lat": 34.20432518,
    "lon": -79.5483896,
    "name": "PEE DEE RIVER AT PEEDEE, SC"
  },
  "02131010": {
    "comid": "9175266",
    "lat": 34.15738145,
    "lon": -79.5533904,
    "name": "PEE DEE RIVER BELOW PEE DEE, SC"
  },
  "02132000": {
    "comid": "9150508",
    "lat": 34.05154846,
    "lon": -79.7539545,
    "name": "LYNCHES RIVER AT EFFINGHAM, SC"
  },
  "02134170": {
    "comid": "9129886",
    "lat": 34.62027778,
    "lon": -79.0111111,
    "name": "LUMBER RIVER AT LUMBERTON, NC"
  },
  "02134500": {
    "comid": "9131716",
    "lat": 34.4425,
    "lon": -78.9602778,
    "name": "LUMBER RIVER AT BOARDMAN, NC"
  },
  "02134900": {
    "comid": "9134724",
    "lat": 34.22599744,
    "lon": -79.1342051,
    "name": "LUMBER RIVER AT NICHOLS, SC"
  },
  "02135000": {
    "comid": "9114416",
    "lat": 34.05710829,
    "lon": -79.2469897,
    "name": "LITTLE PEE DEE R. AT GALIVANTS FERRY, SC"
  },
  "02135200": {
    "comid": "9179884",
    "lat": 33.6610024,
    "lon": -79.1544874,
    "name": "PEE DEE RIVER AT HWY 701 NR BUCKSPORT, SC"
  },
  "02136000": {
    "comid": "9090262",
    "lat": 33.66127545,
    "lon": -79.83590448,
    "name": "BLACK RIVER AT KINGSTREE, SC"
  },
  "0214196125": null,
  "0214244102": null,
  "02145910": null,
  "02146000": {
    "comid": "9736188",
    "lat": 34.98486935,
    "lon": -80.9739658,
    "name": "CATAWBA RIVER NEAR ROCK HILL, SC"
  },
  "02147020": {
    "comid": "9736382",
    "lat": 34.83625705,
    "lon": -80.879518,
    "name": "CATAWBA RIVER BELOW CATAWBA, SC"
  },
  "02148000": {
    "comid": "9718581",
    "lat": 34.24459385,
    "lon": -80.6539697,
    "name": "WATEREE RIVER NR. CAMDEN, SC"
  },
  "02151500": {
    "comid": "12035543",
    "lat": 35.2108333,
    "lon": -81.6975,
    "name": "BROAD RIVER NEAR BOILING SPRINGS, NC"
  },
  "02153200": {
    "comid": "12035605",
    "lat": 35.12401728,
    "lon": -81.58787199,
    "name": "BROAD RIVER NEAR BLACKSBURG, SC"
  },
  "02153551": {
    "comid": "12035715",
    "lat": 35.0312419,
    "lon": -81.492591,
    "name": "BROAD RIVER BELOW NINETYNINE ISLAND RESERVOIR, SC"
  },
  "021564493": {
    "comid": "9705126",
    "lat": 34.66305556,
    "lon": -81.4472222,
    "name": "BROAD RIVER BELOW NEAL SHOALS RES NR CARLISLE, SC"
  },
  "02156500": {
    "comid": "9705130",
    "lat": 34.5951393,
    "lon": -81.4212089,
    "name": "BROAD RIVER NEAR CARLISLE, SC"
  },
  "02161000": {
    "comid": "9707930",
    "lat": 34.24320335,
    "lon": -81.319541,
    "name": "BROAD RIVER AT ALSTON, SC"
  },
  "02162035": {
    "comid": "9707984",
    "lat": 34.0483333,
    "lon": -81.0733333,
    "name": "BROAD RIVER NEAR COLUMBIA, SC"
  },
  "02166501": {
    "comid": "9869434",
    "lat": 34.16763036,
    "lon": -81.9078923,
    "name": "LAKE GREENWOOD TAILRACE NR CHAPPELLS, SC"
  },
  "02167000": {
    "comid": "9869744",
    "lat": 34.17457619,
    "lon": -81.864002,
    "name": "SALUDA RIVER AT CHAPPELLS, SC"
  },
  "02168504": {
    "comid": "9869858",
    "lat": 34.0509822,
    "lon": -81.2095418,
    "name": "SALUDA RIVER BELOW LK MURRAY DAM NR COLUMBIA, SC"
  },
  "02169000": {
    "comid": "9869898",
    "lat": 34.0140416,
    "lon": -81.0878717,
    "name": "SALUDA RIVER NEAR COLUMBIA, SC"
  },
  "02169500": {
    "comid": "9684210",
    "lat": 33.99320985,
    "lon": -81.049815,
    "name": "CONGAREE RIVER AT COLUMBIA, SC"
  },
  "02169750": {
    "comid": "9681570",
    "lat": 33.7530732,
    "lon": -80.6449766,
    "name": "CONGAREE RIVER AT U.S. HWY 601 NR. FORT MOTTE, SC"
  },
  "02171500": {
    "comid": "9661944",
    "lat": 33.45433217,
    "lon": -80.14147189,
    "name": "SANTEE RIVER NEAR PINEVILLE, SC"
  },
  "02171645": null,
  "02172002": {
    "comid": "9643431",
    "lat": 33.21516925,
    "lon": -79.9745248,
    "name": "LAKE MOULTRIE TAILRACE CANAL AT MONCKS CORNER, SC"
  },
  "02173000": {
    "comid": "10553860",
    "lat": 33.39320916,
    "lon": -81.1331559,
    "name": "SOUTH FORK EDISTO RIVER NEAR DENMARK, SC"
  },
  "02173030": {
    "comid": "10553174",
    "lat": 33.3590442,
    "lon": -81.0595425,
    "name": "SOUTH FORK EDISTO RIVER NEAR COPE, SC"
  },
  "02173051": {
    "comid": "10553876",
    "lat": 33.33710079,
    "lon": -81.018708,
    "name": "SOUTH FORK EDISTO RIVER NEAR BAMBERG, SC"
  },
  "02173500": {
    "comid": "10542322",
    "lat": 33.48348715,
    "lon": -80.87342578,
    "name": "NORTH FORK EDISTO RIVER AT ORANGEBURG, SC"
  },
  "02174000": {
    "comid": "9614637",
    "lat": 33.1765502,
    "lon": -80.8012085,
    "name": "EDISTO RIVER NEAR BRANCHVILLE, SC"
  },
  "02174055": {
    "comid": "9614641",
    "lat": 33.06166667,
    "lon": -80.52438889,
    "name": "EDISTO RIVER BELOW CANADYS, SC"
  },
  "02175000": {
    "comid": "9614545",
    "lat": 33.02794645,
    "lon": -80.3914876,
    "name": "EDISTO RIVER NR GIVHANS, SC"
  },
  "02176930": {
    "comid": "6269146",
    "lat": 34.97452778,
    "lon": -83.1161667,
    "name": "CHATTOOGA RIVER AT BURRELLS FORD, NR PINE MTN, GA"
  },
  "02177000": {
    "comid": "6269342",
    "lat": 34.81377778,
    "lon": -83.3063611,
    "name": "CHATTOOGA RIVER NEAR CLAYTON, GA"
  },
  "02192500": null,
  "02197000": {
    "comid": "22724061",
    "lat": 33.37252778,
    "lon": -81.9420833,
    "name": "SAVANNAH RIVER AT AUGUSTA, GA"
  },
  "021973269": {
    "comid": "22730673",
    "lat": 33.1503611,
    "lon": -81.7540833,
    "name": "SAVANNAH RIVER NEAR WAYNESBORO, GA"
  },
  "02197500": null,
  "02198500": null,
  "02202190": {
    "comid": "9945090",
    "lat": 32.49480556,
    "lon": -81.5555,
    "name": "OGEECHEE RIVER AT GA 24, NEAR OLIVER, GA"
  },
  "02202500": {
    "comid": "9944828",
    "lat": 32.1901111,
    "lon": -81.4158611,
    "name": "OGEECHEE RIVER NEAR EDEN, GA"
  },
  "02202680": {
    "comid": "9944910",
    "lat": 32.0795,
    "lon": -81.38475,
    "name": "OGEECHEE RIVER AT GA 204, NEAR ELLABELL, GA"
  },
  "02203536": {
    "comid": "9947104",
    "lat": 31.9769722,
    "lon": -81.2878611,
    "name": "OGEECHEE RIVER AT US 17, NEAR RICHMOND HILL, GA"
  },
  "02212735": {
    "comid": "6336816",
    "lat": 33.0168611,
    "lon": -83.7271944,
    "name": "OCMULGEE RIVER AT GA 18, AT DAMES FERRY, GA"
  },
  "02213000": {
    "comid": "6341518",
    "lat": 32.8386111,
    "lon": -83.6205556,
    "name": "OCMULGEE RIVER AT MACON, GA"
  },
  "02215000": null,
  "02215260": {
    "comid": "6369124",
    "lat": 31.99666667,
    "lon": -83.2790278,
    "name": "OCMULGEE RIVER AT ABBEVILLE, GA"
  },
  "02215500": {
    "comid": "6367034",
    "lat": 31.91991667,
    "lon": -82.6740556,
    "name": "OCMULGEE RIVER AT LUMBER CITY, GA"
  },
  "02223000": {
    "comid": "1943829",
    "lat": 33.09016667,
    "lon": -83.2147778,
    "name": "OCONEE RIVER AT MILLEDGEVILLE, GA"
  },
  "02223056": {
    "comid": "1949057",
    "lat": 32.93933333,
    "lon": -83.0669722,
    "name": "OCONEE RIVER AT AVANT MINE, NEAR OCONEE, GA"
  },
  "02223248": {
    "comid": "1946659",
    "lat": 32.7877222,
    "lon": -82.9569167,
    "name": "OCONEE RIVER NEAR OCONEE, GA"
  },
  "02223500": {
    "comid": "1946791",
    "lat": 32.54394444,
    "lon": -82.8929722,
    "name": "OCONEE RIVER AT DUBLIN, GA"
  },
  "02224500": {
    "comid": "1958701",
    "lat": 32.19091667,
    "lon": -82.6310278,
    "name": "OCONEE RIVER NEAR MOUNT VERNON, GA"
  },
  "02224940": {
    "comid": "14348516",
    "lat": 31.9578611,
    "lon": -82.5170278,
    "name": "ALTAMAHA RIVER AT US 221, NR CHARLOTTEVILLE, GA"
  },
  "02225000": {
    "comid": "14348510",
    "lat": 31.9395,
    "lon": -82.35338889,
    "name": "ALTAMAHA RIVER NEAR BAXLEY, GA"
  },
  "02226000": {
    "comid": "14347322",
    "lat": 31.65466667,
    "lon": -81.8275,
    "name": "ALTAMAHA RIVER AT DOCTORTOWN, GA"
  },
  "02226160": {
    "comid": "14353056",
    "lat": 31.4268611,
    "lon": -81.6051111,
    "name": "ALTAMAHA RIVER NEAR EVERETT CITY, GA"
  },
  "02228000": null,
  "02228070": {
    "comid": "166743365",
    "lat": 30.97488889,
    "lon": -81.7268611,
    "name": "SATILLA RIVER AT US 17, AT WOODBINE, GA"
  },
  "02231000": {
    "comid": "18260325",
    "lat": 30.35884726,
    "lon": -82.0815013,
    "name": "ST. MARYS RIVER NEAR MACCLENNY, FL"
  },
  "02232500": {
    "comid": "10991435",
    "lat": 28.54305529,
    "lon": -80.943392,
    "name": "ST. JOHNS RIVER NEAR CHRISTMAS, FL"
  },
  "02234000": {
    "comid": "10997905",
    "lat": 28.7141611,
    "lon": -81.0353374,
    "name": "ST. JOHNS RIVER ABOVE LAKE HARNEY NEAR GENEVA, FL"
  },
  "02234500": {
    "comid": "11033091",
    "lat": 28.83804694,
    "lon": -81.3242323,
    "name": "ST. JOHNS RIVER NEAR SANFORD, FL"
  },
  "02236000": {
    "comid": "10989245",
    "lat": 29.00831827,
    "lon": -81.3825651,
    "name": "ST. JOHNS RIVER NEAR DE LAND, FL"
  },
  "02236125": {
    "comid": "10989141",
    "lat": 29.16692445,
    "lon": -81.5220157,
    "name": "ST. JOHNS RIVER AT ASTOR, FL"
  },
  "02240500": {
    "comid": "16629290",
    "lat": 29.37166667,
    "lon": -81.9019444,
    "name": "OCKLAWAHA RIVER AT EUREKA, FL"
  },
  "02243960": {
    "comid": "16624514",
    "lat": 29.50833333,
    "lon": -81.8041667,
    "name": "OCKLAWAHA R AT RODMAN DAM NEAR ORANGE SPRINGS, FL"
  },
  "02244040": {
    "comid": "16665219",
    "lat": 29.5963582,
    "lon": -81.683138,
    "name": "ST. JOHNS R AT BUFFALO BLUFF NEAR SATSUMA, FL"
  },
  "02246500": {
    "comid": "16660267",
    "lat": 30.3224616,
    "lon": -81.6653735,
    "name": "ST. JOHNS RIVER AT JACKSONVILLE, FL"
  },
  "02296750": {
    "comid": "16807219",
    "lat": 27.22088245,
    "lon": -81.8761946,
    "name": "PEACE RIVER AT SR 70 AT ARCADIA, FL"
  },
  "02312720": {
    "comid": "16949806",
    "lat": 28.82331955,
    "lon": -82.1831448,
    "name": "WITHLACOOCHEE RIVER AT WYSONG DAM, AT CARLSON, FL"
  },
  "02312762": {
    "comid": "16949786",
    "lat": 28.91220435,
    "lon": -82.2800934,
    "name": "WITHLACOOCHEE RIVER NEAR INVERNESS, FL"
  },
  "02313000": {
    "comid": "16949694",
    "lat": 28.98886759,
    "lon": -82.3495406,
    "name": "WITHLACOOCHEE RIVER AT SR 200 NEAR HOLDER, FL"
  },
  "02313200": {
    "comid": "16944484",
    "lat": 29.0460871,
    "lon": -82.4645443,
    "name": "WITHLACOOCHEE RIVER AT US 41 AT DUNNELLON, FL"
  },
  "02313230": null,
  "02315500": {
    "comid": "166743978",
    "lat": 30.3257812,
    "lon": -82.7381826,
    "name": "SUWANNEE RIVER AT WHITE SPRINGS, FLA."
  },
  "02315550": {
    "comid": "166743979",
    "lat": 30.3929988,
    "lon": -82.9331875,
    "name": "SUWANNEE RIVER AT SUWANNEE SPRINGS FLA"
  },
  "02317620": {
    "comid": "2016602",
    "lat": 30.59826888,
    "lon": -83.073195,
    "name": "ALAPAHA RIVER NEAR JENNINGS FLA"
  },
  "02319000": {
    "comid": "2067240",
    "lat": 30.59548716,
    "lon": -83.2595906,
    "name": "WITHLACOOCHEE RIVER NEAR PINETTA, FLA."
  },
  "02319394": {
    "comid": "166758628",
    "lat": 30.41049435,
    "lon": -83.18013979,
    "name": "WITHLACOOCHEE RIVER NR LEE, FLA"
  },
  "02319500": {
    "comid": "2230475",
    "lat": 30.38466196,
    "lon": -83.1718058,
    "name": "SUWANNEE RIVER AT ELLAVILLE, FLA"
  },
  "02319800": {
    "comid": "2230489",
    "lat": 30.2449425,
    "lon": -83.24958439,
    "name": "SUWANNEE RIVER AT DOWLING PARK, FLORIDA"
  },
  "02320000": {
    "comid": "2230497",
    "lat": 30.09994513,
    "lon": -83.1715247,
    "name": "SUWANNEE RIVER AT LURAVILLE, FLA."
  },
  "02320500": {
    "comid": "2232693",
    "lat": 29.955785,
    "lon": -82.9276278,
    "name": "SUWANNEE RIVER AT BRANFORD, FLA."
  },
  "02322800": {
    "comid": "2161876",
    "lat": 29.91162076,
    "lon": -82.8604033,
    "name": "SANTA FE RIVER NR HILDRETH FLA"
  },
  "02323000": {
    "comid": "2232703",
    "lat": 29.79134359,
    "lon": -82.924293,
    "name": "SUWANNEE RIVER NEAR BELL, FLORIDA"
  },
  "02323500": {
    "comid": "2232713",
    "lat": 29.58968017,
    "lon": -82.9365131,
    "name": "SUWANNEE RIVER NEAR WILCOX, FLA."
  },
  "02323592": {
    "comid": "2235931",
    "lat": 29.33940554,
    "lon": -83.086515,
    "name": "SUWANNEE RIVER AB GOPHER RIVER NR SUWANNEE FL"
  },
  "02330000": {
    "comid": "10366208",
    "lat": 30.38325266,
    "lon": -84.6549109,
    "name": "OCHLOCKONEE RIVER NR BLOXHAM, FLA."
  },
  "02330150": {
    "comid": "10365922",
    "lat": 30.17658934,
    "lon": -84.6679637,
    "name": "OCHLOCKONEE RIVER NR SMITH CREEK, FLA."
  },
  "02337170": {
    "comid": "3286494",
    "lat": 33.65666667,
    "lon": -84.6736111,
    "name": "CHATTAHOOCHEE RIVER NEAR FAIRBURN, GA"
  },
  "02337260": {
    "comid": "3286522",
    "lat": 33.61716667,
    "lon": -84.7605,
    "name": "CHATTAHOOCHEE RIVER ABOVE BEAR CR, NEAR RICO, GA"
  },
  "02338000": {
    "comid": "3290264",
    "lat": 33.47652778,
    "lon": -84.9011944,
    "name": "CHATTAHOOCHEE RIVER NEAR WHITESBURG, GA"
  },
  "02338500": {
    "comid": "3291986",
    "lat": 33.2779722,
    "lon": -85.1009167,
    "name": "CHATTAHOOCHEE RIVER AT GA 100, AT FRANKLIN, GA"
  },
  "02338660": {
    "comid": "3289348",
    "lat": 33.2357222,
    "lon": -84.9875556,
    "name": "NEW RIVER AT GA 100, NEAR CORINTH, GA"
  },
  "02339500": {
    "comid": "3298592",
    "lat": 32.88663889,
    "lon": -85.1815833,
    "name": "CHATTAHOOCHEE RIVER AT WEST POINT, GA"
  },
  "02341460": {
    "comid": "3434274",
    "lat": 32.47277778,
    "lon": -84.9966667,
    "name": "CHATTAHOOCHEE RIVER AT 14TH ST, AT COLUMBUS, GA"
  },
  "02342881": {
    "comid": "3438596",
    "lat": 32.14066667,
    "lon": -85.04938889,
    "name": "CHATTAHOOCHEE RIVER AT SPUR 39, NEAR OMAHA, GA"
  },
  "023432415": {
    "comid": "2306737",
    "lat": 31.62219444,
    "lon": -85.0591667,
    "name": "CHATTAHOOCHEE R .36 MI DS WFG DAM NR FT GAINES, GA"
  },
  "02343805": {
    "comid": "2310423",
    "lat": 31.24908333,
    "lon": -85.1066111,
    "name": "CHATTAHOOCHEE RIVER AT MILE 46 NEAR COLUMBIA, ALA"
  },
  "02349605": {
    "comid": "6444276",
    "lat": 32.29305556,
    "lon": -84.0436111,
    "name": "FLINT RIVER AT GA 26, NEAR MONTEZUMA, GA"
  },
  "02350512": {
    "comid": "6447636",
    "lat": 31.725,
    "lon": -84.0186111,
    "name": "FLINT RIVER AT GA 32, NEAR OAKFIELD, GA"
  },
  "02352500": {
    "comid": "933130036",
    "lat": 31.59416667,
    "lon": -84.1441667,
    "name": "FLINT RIVER AT ALBANY, GA"
  },
  "02353000": {
    "comid": "3424530",
    "lat": 31.30694444,
    "lon": -84.33888889,
    "name": "FLINT RIVER AT NEWTON, GA"
  },
  "02355662": {
    "comid": "3424532",
    "lat": 31.14055556,
    "lon": -84.4809722,
    "name": "FLINT RIVER AT RIVERVIEW PLANTATION, NR HOPEFUL,GA"
  },
  "02356000": {
    "comid": "3425836",
    "lat": 30.91030556,
    "lon": -84.5805,
    "name": "FLINT RIVER AT BAINBRIDGE, GA"
  },
  "02358000": {
    "comid": "2293124",
    "lat": 30.7010251,
    "lon": -84.8590871,
    "name": "APALACHICOLA RIVER AT CHATTAHOOCHEE FLA"
  },
  "02358700": {
    "comid": "2297254",
    "lat": 30.42519625,
    "lon": -85.0313059,
    "name": "APALACHICOLA RIVER NR BLOUNTSTOWN,FLORIDA"
  },
  "02358754": {
    "comid": "2297374",
    "lat": 30.1322611,
    "lon": -85.1420111,
    "name": "APALACHICOLA R.AB CHIPOLA CUTOFF NR WEWAHITCHKA,FL"
  },
  "02359170": {
    "comid": "2298964",
    "lat": 29.94937094,
    "lon": -85.0154686,
    "name": "APALACHICOLA RIVER NR SUMATRA,FLA."
  },
  "02361500": {
    "comid": "2189757",
    "lat": 31.15934229,
    "lon": -85.7843789,
    "name": "CHOCTAWHATCHEE RIVER NEAR BELLWOOD AL"
  },
  "02364500": {
    "comid": "2214110",
    "lat": 31.11267588,
    "lon": -86.0993868,
    "name": "PEA RIVER NEAR SAMSON AL"
  },
  "02365200": {
    "comid": "2242015",
    "lat": 30.94990438,
    "lon": -85.84299,
    "name": "CHOCTAWHATCHEE RIVER NR PITTMAN, FLA."
  },
  "02365500": {
    "comid": "2242113",
    "lat": 30.77574389,
    "lon": -85.827711,
    "name": "CHOCTAWHATCHEE RIVER AT CARYVILLE, FLA."
  },
  "02366500": {
    "comid": "2244465",
    "lat": 30.4510296,
    "lon": -85.89826819,
    "name": "CHOCTAWHATCHEE RIVER NR BRUCE, FLA."
  },
  "02372422": {
    "comid": "2378929",
    "lat": 31.3612799,
    "lon": -86.5196826,
    "name": "CONECUH RIVER BEL PT A DAM NR RIVER FALLS, AL."
  },
  "02372430": {
    "comid": "2378189",
    "lat": 31.34822474,
    "lon": -86.5294047,
    "name": "CONECUH RIVER AT RIVER FALLS, ALABAMA"
  },
  "02374250": {
    "comid": "2413994",
    "lat": 31.06712374,
    "lon": -87.0616352,
    "name": "CONECUH RIVER AT STATE HWY 41 NEAR BREWTON, AL."
  },
  "02375500": {
    "comid": "448444",
    "lat": 30.96518304,
    "lon": -87.2341395,
    "name": "ESCAMBIA RIVER NEAR CENTURY, FL"
  },
  "02376033": {
    "comid": "448560",
    "lat": 30.6701917,
    "lon": -87.2669179,
    "name": "ESCAMBIA RIVER NR MOLINO, FLA."
  },
  "02388500": {
    "comid": "6489904",
    "lat": 34.2989722,
    "lon": -85.138,
    "name": "OOSTANAULA RIVER NEAR ROME, GA"
  },
  "02397530": {
    "comid": "15823427",
    "lat": 34.20194444,
    "lon": -85.45325,
    "name": "COOSA RIVER AT STATE LINE, AL/GA"
  },
  "02407000": {
    "comid": "22273668",
    "lat": 33.29177917,
    "lon": -86.36386659,
    "name": "COOSA RIVER AT CHILDERSBURG AL"
  },
  "02414500": {
    "comid": "22042575",
    "lat": 33.11678684,
    "lon": -85.5607875,
    "name": "TALLAPOOSA RIVER AT WADLEY AL"
  },
  "02414715": {
    "comid": "22038591",
    "lat": 32.97734526,
    "lon": -85.7396808,
    "name": "TALLAPOOSA RIVER NR NEW SITE, AL.(HORSESHOE BEND)"
  },
  "02419890": {
    "comid": "21719268",
    "lat": 32.43985898,
    "lon": -86.1955222,
    "name": "TALLAPOOSA RIVER NEAR MONT.-MONT. WATER WORKS"
  },
  "02420000": {
    "comid": "21687086",
    "lat": 32.41152597,
    "lon": -86.40830579,
    "name": "ALABAMA RIVER NEAR MONTGOMERY, AL."
  },
  "02424000": {
    "comid": "21661814",
    "lat": 32.9451238,
    "lon": -87.1391623,
    "name": "CAHABA RIVER AT CENTREVILLE AL"
  },
  "02425000": {
    "comid": "21662336",
    "lat": 32.44402456,
    "lon": -87.1802715,
    "name": "CAHABA RIVER NEAR MARION JUNCTION AL"
  },
  "02428400": {
    "comid": "18239647",
    "lat": 31.61515849,
    "lon": -87.550548,
    "name": "ALABAMA RIVER AT CLAIBORNE L&D NEAR MONROEVILLE"
  },
  "02433500": {
    "comid": "18696205",
    "lat": 34.01138889,
    "lon": -88.5136111,
    "name": "TOMBIGBEE RIVER AT BIGBEE, MS"
  },
  "02437100": {
    "comid": "18698547",
    "lat": 33.83,
    "lon": -88.52,
    "name": "TOMBIGBEE RIVER AT ABERDEEN LOCK AND DAM, MS"
  },
  "02439400": {
    "comid": "18673952",
    "lat": 33.79,
    "lon": -88.3152778,
    "name": "BUTTAHATCHEE RIVER NR ABERDEEN, MS"
  },
  "02441390": {
    "comid": "18698745",
    "lat": 33.5175,
    "lon": -88.4894444,
    "name": "TOMBIGBEE RIVER AT STENNIS LOCK AND DAM, MS"
  },
  "02443500": {
    "comid": "18648624",
    "lat": 33.51416667,
    "lon": -88.3952778,
    "name": "LUXAPALLILA CREEK NR COLUMBUS, MS"
  },
  "02444160": {
    "comid": "18631042",
    "lat": 33.21067874,
    "lon": -88.2886454,
    "name": "TOMBIGBEE RIVER AT BEVILL L&D NR PICKENSVILLE, AL"
  },
  "02444161": {
    "comid": "18631042",
    "lat": 33.21040097,
    "lon": -88.2886454,
    "name": "TOMBIGBEE RIVER BEL BEVIL L&D NR PICKENSVILLE, AL."
  },
  "02447025": {
    "comid": "18634038",
    "lat": 32.8481856,
    "lon": -88.1561363,
    "name": "TOMBIGBEE R AT HEFLIN L&D NR GAINESVILLE, AL"
  },
  "02447026": {
    "comid": "18634030",
    "lat": 32.85235218,
    "lon": -88.1541918,
    "name": "TOMBIGBEE R BLW HEFLIN L&D NR GAINESVILLE, ALA"
  },
  "02448000": {
    "comid": "18601794",
    "lat": 33.0723611,
    "lon": -88.5587778,
    "name": "NOXUBEE RIVER AT MACON, MS"
  },
  "02448500": {
    "comid": "18604126",
    "lat": 32.9326287,
    "lon": -88.2978103,
    "name": "NOXUBEE RIVER NR GEIGER, AL"
  },
  "02452505": {
    "comid": "18581833",
    "lat": 33.82121589,
    "lon": -87.0702788,
    "name": "SIPSEY FORK AT SIPSEY, ALA"
  },
  "02453500": {
    "comid": "18592074",
    "lat": 33.75760677,
    "lon": -87.1702791,
    "name": "MULBERRY FORK AT CORDOVA AL"
  },
  "02456500": {
    "comid": "18566317",
    "lat": 33.7098268,
    "lon": -86.9833305,
    "name": "LOCUST FORK AT SAYRE, AL."
  },
  "02465000": {
    "comid": "18229923",
    "lat": 33.20928528,
    "lon": -87.5900074,
    "name": "BLACK WARRIOR RIVER AT NORTHPORT AL"
  },
  "02466030": {
    "comid": "18215736",
    "lat": 32.77790835,
    "lon": -87.8405687,
    "name": "BLACK WARRIOR RIVER AT SELDEN L & D NEAR EUTAW, AL"
  },
  "02466031": {
    "comid": "18215736",
    "lat": 32.7773528,
    "lon": -87.841402,
    "name": "BLACK WARRIOR RIVER BELOW SELDEN DAM NR EUTAW, AL"
  },
  "02467000": {
    "comid": "18540822",
    "lat": 32.51958077,
    "lon": -87.8783476,
    "name": "TOMBIGBEE R AT DEMOPOLIS L&D NEAR COATOPA, AL."
  },
  "02469525": {
    "comid": "18546646",
    "lat": 32.13014697,
    "lon": -88.0411267,
    "name": "TOMBIGBEE RIVER NEAR NANAFALIA, AL."
  },
  "02469761": {
    "comid": "18548516",
    "lat": 31.75849066,
    "lon": -88.1291763,
    "name": "TOMBIGBEE R AT COFFEEVILLE L&D NR COFFEEVILLE, AL."
  },
  "02472000": {
    "comid": "18154237",
    "lat": 31.70694444,
    "lon": -89.4069444,
    "name": "LEAF RIVER NR COLLINS, MS"
  },
  "02473000": {
    "comid": "18135826",
    "lat": 31.34305556,
    "lon": -89.2802778,
    "name": "LEAF RIVER AT HATTIESBURG, MS"
  },
  "02474560": {
    "comid": "18135958",
    "lat": 31.22166667,
    "lon": -89.0530556,
    "name": "LEAF RIVER NR NEW AUGUSTA, MS"
  },
  "02475000": {
    "comid": "18134412",
    "lat": 31.10741389,
    "lon": -88.8083222,
    "name": "LEAF RIVER NR MCLAIN, MS"
  },
  "02477000": {
    "comid": "18178477",
    "lat": 32.17583333,
    "lon": -88.8197222,
    "name": "CHICKASAWHAY RIVER AT ENTERPRISE, MS"
  },
  "02477045": {
    "comid": "18179773",
    "lat": 32.04237214,
    "lon": -88.7442119,
    "name": "CHICKASAWHAY RIVER AT QUITMAN, MS"
  },
  "02477500": {
    "comid": "18182257",
    "lat": 31.68254959,
    "lon": -88.68351,
    "name": "CHICKASAWHAY RIVER NR WAYNESBORO, MS"
  },
  "02478500": {
    "comid": "18172814",
    "lat": 31.1486111,
    "lon": -88.5480556,
    "name": "CHICKASAWHAY RIVER AT LEAKESVILLE, MS"
  },
  "02479000": {
    "comid": "18121032",
    "lat": 30.97805556,
    "lon": -88.7269444,
    "name": "PASCAGOULA RIVER AT MERRILL, MS"
  },
  "02479310": {
    "comid": "18121240",
    "lat": 30.61055556,
    "lon": -88.64138889,
    "name": "PASCAGOULA RIVER AT GRAHAM FERRY, MS"
  },
  "02482000": {
    "comid": "15785502",
    "lat": 32.79888889,
    "lon": -89.335,
    "name": "PEARL RIVER AT EDINBURG, MS"
  },
  "02482550": {
    "comid": "15788288",
    "lat": 32.7072222,
    "lon": -89.5263889,
    "name": "PEARL RIVER NR CARTHAGE, MS"
  },
  "02483500": {
    "comid": "15788348",
    "lat": 32.6672222,
    "lon": -89.6461111,
    "name": "PEARL RIVER NR LENA, MS"
  },
  "02485735": {
    "comid": "15758306",
    "lat": 32.33153417,
    "lon": -90.1292532,
    "name": "PEARL RIVER AT HWY 25 AT JACKSON, MS"
  },
  "02486000": {
    "comid": "15758318",
    "lat": 32.28138889,
    "lon": -90.1788889,
    "name": "PEARL RIVER AT JACKSON, MS"
  },
  "02488000": {
    "comid": "15737433",
    "lat": 31.79083333,
    "lon": -90.1425,
    "name": "PEARL RIVER AT ROCKPORT, MS"
  },
  "02488500": {
    "comid": "15737587",
    "lat": 31.55333333,
    "lon": -90.0880556,
    "name": "PEARL RIVER NR MONTICELLO, MS"
  },
  "02489000": {
    "comid": "15702833",
    "lat": 31.23777778,
    "lon": -89.8469444,
    "name": "PEARL RIVER NR COLUMBIA, MS"
  },
  "02489500": {
    "comid": "15708443",
    "lat": 30.79324276,
    "lon": -89.8209072,
    "name": "Pearl River near Bogalusa, LA"
  },
  "02491800": {
    "comid": "15693037",
    "lat": 30.72019444,
    "lon": -90.0835,
    "name": "Bogue Chitto at Enon, LA"
  },
  "02492000": {
    "comid": "15690765",
    "lat": 30.62935636,
    "lon": -89.8972956,
    "name": "Bogue Chitto River near Bush, LA"
  },
  "03010820": {
    "comid": "8969946",
    "lat": 42.0723611,
    "lon": -78.4508611,
    "name": "ALLEGHENY RIVER AT OLEAN NY"
  },
  "03011020": {
    "comid": "8969860",
    "lat": 42.1568333,
    "lon": -78.7155556,
    "name": "ALLEGHENY RIVER AT SALAMANCA NY"
  },
  "03012550": {
    "comid": "8975664",
    "lat": 41.84144917,
    "lon": -79.0119846,
    "name": "Allegheny River at Kinzua Dam, PA"
  },
  "03015310": {
    "comid": "8975690",
    "lat": 41.8439485,
    "lon": -79.1497668,
    "name": "Allegheny River bl Conewango Creek at Warren, PA"
  },
  "03016000": {
    "comid": "10220190",
    "lat": 41.5708949,
    "lon": -79.4078243,
    "name": "Allegheny River at West Hickory, PA"
  },
  "03025500": {
    "comid": "10222194",
    "lat": 41.3895027,
    "lon": -79.8203322,
    "name": "Allegheny River at Franklin, PA"
  },
  "03031500": {
    "comid": "4745955",
    "lat": 41.10061789,
    "lon": -79.68116,
    "name": "Allegheny River at Parker, PA"
  },
  "03036500": {
    "comid": "4742165",
    "lat": 40.82034197,
    "lon": -79.531434,
    "name": "Allegheny River at Kittanning, PA"
  },
  "03048500": {
    "comid": "4581930",
    "lat": 40.6045099,
    "lon": -79.5519887,
    "name": "Kiskiminetas River at Vandergrift, PA"
  },
  "03049500": {
    "comid": "11049994",
    "lat": 40.615344,
    "lon": -79.71838129,
    "name": "Allegheny River at Natrona, PA"
  },
  "03050000": {
    "comid": "4353002",
    "lat": 38.809275,
    "lon": -79.8817342,
    "name": "TYGART VALLEY RIVER NEAR DAILEY, WV"
  },
  "03054500": {
    "comid": "4352178",
    "lat": 39.15037545,
    "lon": -80.038691,
    "name": "TYGART VALLEY RIVER AT PHILIPPI, WV"
  },
  "03056000": {
    "comid": "4352134",
    "lat": 39.31981459,
    "lon": -80.0250779,
    "name": "TYGART VALLEY R AT TYGART DAM NR GRAFTON, WV"
  },
  "03057000": {
    "comid": "4352082",
    "lat": 39.4350866,
    "lon": -80.1325789,
    "name": "TYGART VALLEY RIVER AT COLFAX, WV"
  },
  "03061000": {
    "comid": "3715602",
    "lat": 39.42230818,
    "lon": -80.2759187,
    "name": "WEST FORK RIVER AT ENTERPRISE, WV"
  },
  "03062500": {
    "comid": "3768536",
    "lat": 39.62924826,
    "lon": -79.9525633,
    "name": "DECKERS CREEK AT MORGANTOWN, WV"
  },
  "03065000": {
    "comid": "3775187",
    "lat": 39.07232928,
    "lon": -79.6228373,
    "name": "DRY FORK AT HENDRICKS, WV"
  },
  "03066000": {
    "comid": "3775599",
    "lat": 39.1270524,
    "lon": -79.4683852,
    "name": "BLACKWATER RIVER AT DAVIS, WV"
  },
  "03069500": {
    "comid": "3776001",
    "lat": 39.12155556,
    "lon": -79.6755278,
    "name": "CHEAT RIVER NEAR PARSONS, WV"
  },
  "0307020015": {
    "comid": "3775723",
    "lat": 39.34976389,
    "lon": -79.6679194,
    "name": "CHEAT RIVER BELOW SALTLICK CREEK AT ROWLESBURG, WV"
  },
  "03070260": {
    "comid": "3775649",
    "lat": 39.4948104,
    "lon": -79.6444969,
    "name": "CHEAT RIVER AT ALBRIGHT, WV"
  },
  "03072655": {
    "comid": "3788105",
    "lat": 39.82507696,
    "lon": -79.9228329,
    "name": "Monongahela River near Masontown, PA"
  },
  "03075070": {
    "comid": "3785895",
    "lat": 40.26229225,
    "lon": -79.9011597,
    "name": "Monongahela River at Elizabeth, PA"
  },
  "03075500": {
    "comid": "3809533",
    "lat": 39.4215833,
    "lon": -79.42363889,
    "name": "YOUGHIOGHENY RIVER NEAR OAKLAND, MD"
  },
  "03075590": {
    "comid": "3809449",
    "lat": 39.49255556,
    "lon": -79.4120278,
    "name": "YOUGHIOGHENY RIVER NEAR SWALLOW FALLS PARK, MD"
  },
  "03076100": {
    "comid": "3808859",
    "lat": 39.52580556,
    "lon": -79.41075,
    "name": "YOUGHIOGHENY RIVER NEAR MCHENRY, MD"
  },
  "03076500": {
    "comid": "3808497",
    "lat": 39.6536111,
    "lon": -79.4083056,
    "name": "YOUGHIOGHENY RIVER AT FRIENDSVILLE, MD"
  },
  "03083500": {
    "comid": "3806147",
    "lat": 40.2402222,
    "lon": -79.8066944,
    "name": "Youghiogheny River at Sutersville, PA"
  },
  "03085000": null,
  "03086000": null,
  "03098600": {
    "comid": "13153643",
    "lat": 41.10505807,
    "lon": -80.6625755,
    "name": "Mahoning River above West Ave at Youngstown OH"
  },
  "03099500": {
    "comid": "13154299",
    "lat": 41.03672598,
    "lon": -80.5361815,
    "name": "Mahoning River at Lowellville OH"
  },
  "03105500": {
    "comid": "19464300",
    "lat": 40.88867389,
    "lon": -80.3370083,
    "name": "Beaver River at Wampum, PA"
  },
  "03107500": {
    "comid": "19464254",
    "lat": 40.76339848,
    "lon": -80.3150629,
    "name": "Beaver River at Beaver Falls, PA"
  },
  "03114306": {
    "comid": "15429794",
    "lat": 39.63027778,
    "lon": -80.8747222,
    "name": "OHIO RIVER ABOVE SARDIS, OH"
  },
  "03129000": {
    "comid": "19392918",
    "lat": 40.2614593,
    "lon": -81.6090097,
    "name": "Tuscarawas River at Newcomerstown OH"
  },
  "03140500": {
    "comid": "15379381",
    "lat": 40.24840465,
    "lon": -81.872909,
    "name": "Muskingum River near Coshocton OH"
  },
  "03144500": {
    "comid": "15380191",
    "lat": 40.12034687,
    "lon": -81.9995802,
    "name": "Muskingum River at Dresden OH"
  },
  "03150000": {
    "comid": "15383167",
    "lat": 39.6450711,
    "lon": -81.8498578,
    "name": "Muskingum River at McConnelsville OH"
  },
  "03150500": {
    "comid": "15383305",
    "lat": 39.5450731,
    "lon": -81.6404066,
    "name": "Muskingum River at Beverly OH"
  },
  "03155000": {
    "comid": "19415571",
    "lat": 39.0589686,
    "lon": -81.38956408,
    "name": "LITTLE KANAWHA RIVER AT PALESTINE, WV"
  },
  "03159500": {
    "comid": "15421121",
    "lat": 39.32896188,
    "lon": -82.0876439,
    "name": "Hocking River at Athens OH"
  },
  "03161000": {
    "comid": "6892192",
    "lat": 36.3933333,
    "lon": -81.4069444,
    "name": "SOUTH FORK NEW RIVER NEAR JEFFERSON, NC"
  },
  "03164000": {
    "comid": "6887572",
    "lat": 36.6473497,
    "lon": -80.978969,
    "name": "NEW RIVER NEAR GALAX, VA"
  },
  "03165500": {
    "comid": "6887364",
    "lat": 36.83484534,
    "lon": -80.9525807,
    "name": "NEW RIVER AT IVANHOE, VA"
  },
  "03168000": {
    "comid": "6887202",
    "lat": 36.93762235,
    "lon": -80.7456257,
    "name": "NEW RIVER AT ALLISONIA, VA"
  },
  "03171000": {
    "comid": "6884666",
    "lat": 37.14179254,
    "lon": -80.56922499,
    "name": "NEW RIVER AT RADFORD, VA"
  },
  "03176500": {
    "comid": "6908699",
    "lat": 37.3728986,
    "lon": -80.8606347,
    "name": "NEW RIVER AT GLEN LYN, VA"
  },
  "03183500": {
    "comid": "12107522",
    "lat": 37.7242874,
    "lon": -80.641468,
    "name": "GREENBRIER RIVER AT ALDERSON, WV"
  },
  "03184000": {
    "comid": "12107594",
    "lat": 37.64012018,
    "lon": -80.805083,
    "name": "GREENBRIER RIVER AT HILLDALE, WV"
  },
  "03184500": {
    "comid": "6919962",
    "lat": 37.6703969,
    "lon": -80.8925874,
    "name": "NEW RIVER AT HINTON, WV"
  },
  "03185400": {
    "comid": "6920810",
    "lat": 37.95511285,
    "lon": -81.07648838,
    "name": "NEW RIVER AT THURMOND, WV"
  },
  "03186500": {
    "comid": "4547810",
    "lat": 38.37899915,
    "lon": -80.4839737,
    "name": "WILLIAMS RIVER AT DYER, WV"
  },
  "03187500": {
    "comid": "4547840",
    "lat": 38.2953903,
    "lon": -80.5264749,
    "name": "CRANBERRY RIVER NEAR RICHWOOD, WV"
  },
  "03192000": {
    "comid": "4552334",
    "lat": 38.2334395,
    "lon": -81.1809415,
    "name": "GAULEY RIVER ABOVE BELVA, WV"
  },
  "03193000": {
    "comid": "6925383",
    "lat": 38.1381632,
    "lon": -81.2142745,
    "name": "KANAWHA RIVER AT KANAWHA FALLS, WV"
  },
  "03196800": {
    "comid": "19325043",
    "lat": 38.46065656,
    "lon": -81.0876087,
    "name": "ELK RIVER AT CLAY, WV"
  },
  "03197000": null,
  "03197950": {
    "comid": "19325151",
    "lat": 38.3581527,
    "lon": -81.627068,
    "name": "ELK RIVER AT CHARLESTON, WV"
  },
  "03198000": {
    "comid": "19315490",
    "lat": 38.37148448,
    "lon": -81.7020701,
    "name": "KANAWHA RIVER AT CHARLESTON, WV"
  },
  "03198350": {
    "comid": "6929270",
    "lat": 37.9662186,
    "lon": -81.524278,
    "name": "CLEAR FORK AT WHITESVILLE, WV"
  },
  "03200500": {
    "comid": "6928060",
    "lat": 38.33898309,
    "lon": -81.841518,
    "name": "COAL RIVER AT TORNADO, WV"
  },
  "03203000": {
    "comid": "6935684",
    "lat": 37.740385,
    "lon": -81.8767857,
    "name": "GUYANDOTTE RIVER AT MAN, WV"
  },
  "03203600": {
    "comid": "19293432",
    "lat": 37.84232616,
    "lon": -81.9759574,
    "name": "GUYANDOTTE RIVER AT LOGAN, WV"
  },
  "03209800": {
    "comid": "886677",
    "lat": 37.67093027,
    "lon": -82.7771043,
    "name": "LEVISA FORK AT PRESTONSBURG, KY"
  },
  "03212500": {
    "comid": "886643",
    "lat": 37.81537197,
    "lon": -82.7915493,
    "name": "LEVISA FORK AT PAINTSVILLE, KY"
  },
  "03213700": {
    "comid": "435154",
    "lat": 37.67315699,
    "lon": -82.2801408,
    "name": "TUG FORK AT WILLIAMSON, WV"
  },
  "03214500": {
    "comid": "434540",
    "lat": 37.83731869,
    "lon": -82.4087578,
    "name": "TUG FORK AT KERMIT, WV"
  },
  "03215000": {
    "comid": "909015",
    "lat": 38.17119708,
    "lon": -82.6346023,
    "name": "BIG SANDY R AT LOUISA, KY"
  },
  "03216070": {
    "comid": "935090016",
    "lat": 38.53205556,
    "lon": -82.6859444,
    "name": "OHIO RIVER AT IRONTON, OH"
  },
  "03216600": {
    "comid": "465518",
    "lat": 38.6467448,
    "lon": -82.860447,
    "name": "OHIO RIVER AT GREENUP DAM NEAR GREENUP, KY"
  },
  "03220000": {
    "comid": "5215441",
    "lat": 40.24839457,
    "lon": -83.1738026,
    "name": "Mill Creek near Bellepoint OH"
  },
  "03221000": {
    "comid": "5215753",
    "lat": 40.14339564,
    "lon": -83.1204664,
    "name": "Scioto River below O'Shaughnessy Dam nr Dublin OH"
  },
  "03221646": {
    "comid": "5218149",
    "lat": 39.98916667,
    "lon": -83.0677778,
    "name": "Scioto River at 5th Ave at Columbus OH"
  },
  "03227500": {
    "comid": "5218167",
    "lat": 39.9095084,
    "lon": -83.0090724,
    "name": "Scioto River at Columbus OH"
  },
  "03229610": {
    "comid": "5218209",
    "lat": 39.77422977,
    "lon": -83.0076834,
    "name": "Scioto River near Commercial Point OH"
  },
  "03230700": {
    "comid": "3483129",
    "lat": 39.60145128,
    "lon": -82.9551804,
    "name": "Scioto River at Circleville OH"
  },
  "03231500": {
    "comid": "3486865",
    "lat": 39.34145297,
    "lon": -82.9710126,
    "name": "Scioto River at Chillicothe OH"
  },
  "03234000": {
    "comid": "5233256",
    "lat": 39.2636763,
    "lon": -83.16685208,
    "name": "Paint Creek near Bourneville OH"
  },
  "03234300": {
    "comid": "5231404",
    "lat": 39.3203421,
    "lon": -82.9782349,
    "name": "Paint Creek at Chillicothe OH"
  },
  "03234500": {
    "comid": "3486931",
    "lat": 39.21228934,
    "lon": -82.8637854,
    "name": "Scioto River at Higby OH"
  },
  "03237020": {
    "comid": "3488041",
    "lat": 39.07006954,
    "lon": -83.0196224,
    "name": "Scioto River at Piketon OH"
  },
  "03245500": {
    "comid": "25243939",
    "lat": 39.17144887,
    "lon": -84.2979933,
    "name": "Little Miami River at Milford OH"
  },
  "03250500": {
    "comid": "2091737",
    "lat": 38.4200749,
    "lon": -83.9974261,
    "name": "LICKING RIVER AT BLUE LICK SPRINGS, KY"
  },
  "03251500": {
    "comid": "2088435",
    "lat": 38.60007244,
    "lon": -84.2663239,
    "name": "LICKING RIVER AT MCKINNEYSBURG, KY"
  },
  "03253500": {
    "comid": "2088097",
    "lat": 38.7103478,
    "lon": -84.3107693,
    "name": "LICKING RIVER AT CATAWBA, KY"
  },
  "03254520": {
    "comid": "2087849",
    "lat": 38.9203417,
    "lon": -84.44799549,
    "name": "LICKING RIVER AT HWY 536 NEAR ALEXANDRIA, KY"
  },
  "03262500": {
    "comid": "3984696",
    "lat": 40.1508844,
    "lon": -84.2288333,
    "name": "Great Miami River at Piqua OH"
  },
  "03262700": {
    "comid": "3984712",
    "lat": 40.04033169,
    "lon": -84.1977209,
    "name": "Great Miami River at Troy OH"
  },
  "03263000": {
    "comid": "3986312",
    "lat": 39.87450176,
    "lon": -84.16188479,
    "name": "Great Miami River at Taylorsville OH"
  },
  "03270500": {
    "comid": "3883698",
    "lat": 39.7653365,
    "lon": -84.1974405,
    "name": "Great Miami River at Dayton OH"
  },
  "03271500": {
    "comid": "3883750",
    "lat": 39.6445028,
    "lon": -84.2896639,
    "name": "Great Miami River at Miamisburg OH"
  },
  "03271620": {
    "comid": "3883918",
    "lat": 39.563114,
    "lon": -84.3049408,
    "name": "Great Miami River at Franklin OH"
  },
  "03272100": {
    "comid": "3883848",
    "lat": 39.5198861,
    "lon": -84.4126778,
    "name": "Great Miami River at Middletown OH"
  },
  "03274000": {
    "comid": "3885878",
    "lat": 39.3911674,
    "lon": -84.572169,
    "name": "Great Miami River at Hamilton OH"
  },
  "03274650": {
    "comid": "3921201",
    "lat": 40.00421314,
    "lon": -85.1155201,
    "name": "WHITEWATER RIVER NEAR ECONOMY, IN"
  },
  "03277200": null,
  "03282000": {
    "comid": "868118",
    "lat": 37.5531418,
    "lon": -83.7693625,
    "name": "KENTUCKY RIVER AT LOCK 14 AT HEIDELBERG, KY"
  },
  "03282060": {
    "comid": "868074",
    "lat": 37.60189058,
    "lon": -83.83336439,
    "name": "KENTUCKY RIVER AT LOCK 13 NEAR WILLOW SHOALS, KY"
  },
  "03282120": {
    "comid": "868036",
    "lat": 37.6783333,
    "lon": -83.9483333,
    "name": "KENTUCKY RIVER AT LOCK 12 NEAR IRVINE, KY"
  },
  "03282290": {
    "comid": "868626",
    "lat": 37.78396929,
    "lon": -84.1032602,
    "name": "KENTUCKY RIVER AT LOCK 11 NEAR COLLEGE HILL, KY"
  },
  "03284000": null,
  "03284230": {
    "comid": "1827768",
    "lat": 37.843968,
    "lon": -84.44063039,
    "name": "KENTUCKY RIVER AT LOCK 9 AT VALLEY VIEW, KY"
  },
  "03284500": {
    "comid": "1827842",
    "lat": 37.74535715,
    "lon": -84.5866074,
    "name": "KENTUCKY RIVER AT LOCK 8 NEAR CAMP NELSON, KY"
  },
  "03286500": {
    "comid": "1827790",
    "lat": 37.8292447,
    "lon": -84.723835,
    "name": "KENTUCKY RIVER AT LOCK 7 AT HIGHBRIDGE, KY"
  },
  "03287000": {
    "comid": "1827748",
    "lat": 37.92563166,
    "lon": -84.8213381,
    "name": "KENTUCKY RIVER AT LOCK 6 NEAR SALVISA, KY"
  },
  "03287250": {
    "comid": "1825620",
    "lat": 38.0528805,
    "lon": -84.8311989,
    "name": "KENTUCKY RIVER AT LOCK 5 NEAR TYRONE, KY"
  },
  "03287500": {
    "comid": "1825588",
    "lat": 38.2017388,
    "lon": -84.8816171,
    "name": "KENTUCKY RIVER AT LOCK 4 AT FRANKFORT, KY"
  },
  "03290500": {
    "comid": "1825520",
    "lat": 38.43895654,
    "lon": -84.9632844,
    "name": "KENTUCKY RIVER AT LOCK 2 AT LOCKPORT, KY"
  },
  "03292494": {
    "comid": "10163998",
    "lat": 38.2811812,
    "lon": -85.7021843,
    "name": "OHIO RIVER AT WATER TOWER AT LOUISVILLE, KY"
  },
  "03294500": {
    "comid": "10164004",
    "lat": 38.28034736,
    "lon": -85.7991305,
    "name": "OHIO RIVER AT LOUISVILLE, KY"
  },
  "03303280": {
    "comid": "10109567",
    "lat": 37.89950088,
    "lon": -86.70554179,
    "name": "OHIO RIVER AT CANNELTON DAM AT CANNELTON, IN"
  },
  "03308500": {
    "comid": "4001162",
    "lat": 37.26944444,
    "lon": -85.8880556,
    "name": "GREEN RIVER AT MUNFORDVILLE, KY"
  },
  "03309000": {
    "comid": "4005288",
    "lat": 37.18004845,
    "lon": -86.1124757,
    "name": "GREEN RIVER AT MAMMOTH CAVE, KY"
  },
  "03314500": {
    "comid": "4033060",
    "lat": 37.0028201,
    "lon": -86.432768,
    "name": "BARREN RIVER AT BOWLING GREEN, KY"
  },
  "03316500": {
    "comid": "11628855",
    "lat": 37.2639316,
    "lon": -86.9777726,
    "name": "GREEN RIVER AT PARADISE, KY"
  },
  "03320000": {
    "comid": "11617363",
    "lat": 37.533935,
    "lon": -87.2638873,
    "name": "GREEN RIVER AT LOCK 2 AT CALHOUN, KY"
  },
  "03321500": null,
  "03325000": {
    "comid": "18508640",
    "lat": 40.7908765,
    "lon": -85.8202632,
    "name": "WABASH RIVER AT WABASH, IN"
  },
  "03327500": {
    "comid": "18509078",
    "lat": 40.75,
    "lon": -86.0666667,
    "name": "WABASH RIVER AT PERU, IN"
  },
  "03329000": {
    "comid": "20101828",
    "lat": 40.74642866,
    "lon": -86.37749979,
    "name": "WABASH RIVER AT LOGANSPORT, IN"
  },
  "03332345": {
    "comid": "18489976",
    "lat": 40.8778611,
    "lon": -86.7511944,
    "name": "TIPPECANOE RIVER AT BUFFALO, IN"
  },
  "03332555": {
    "comid": "18490760",
    "lat": 40.77863889,
    "lon": -86.75888889,
    "name": "TIPPECANOE RIVER AT NORWAY, IN"
  },
  "03332605": {
    "comid": "18490764",
    "lat": 40.6533712,
    "lon": -86.7566769,
    "name": "TIPPECANOE RIVER BELOW OAKDALE DAM, IN"
  },
  "03333050": {
    "comid": "18490768",
    "lat": 40.59391667,
    "lon": -86.7703333,
    "name": "TIPPECANOE RIVER NEAR DELPHI, IN"
  },
  "03335500": {
    "comid": "10205115",
    "lat": 40.42194444,
    "lon": -86.8969444,
    "name": "WABASH RIVER AT LAFAYETTE, IN"
  },
  "03335680": null,
  "03336000": {
    "comid": "10206671",
    "lat": 40.1400377,
    "lon": -87.4066805,
    "name": "WABASH RIVER AT COVINGTON, IN"
  },
  "03340500": {
    "comid": "10210063",
    "lat": 39.79253835,
    "lon": -87.3739053,
    "name": "WABASH RIVER AT MONTEZUMA, IN"
  },
  "03341500": {
    "comid": "10286212",
    "lat": 39.4657222,
    "lon": -87.4195,
    "name": "WABASH RIVER AT TERRE HAUTE, IN"
  },
  "03342000": {
    "comid": "10288896",
    "lat": 39.0203202,
    "lon": -87.5686344,
    "name": "WABASH RIVER AT RIVERTON, IN"
  },
  "03343010": {
    "comid": "10286960",
    "lat": 38.6814358,
    "lon": -87.5352993,
    "name": "WABASH RIVER AT MEMORIAL BRIDGE AT VINCENNES, IN"
  },
  "03346500": {
    "comid": "10339414",
    "lat": 38.7236111,
    "lon": -87.6644444,
    "name": "EMBARRAS RIVER AT LAWRENCEVILLE, IL"
  },
  "03351201": {
    "comid": "18476865",
    "lat": 39.83115299,
    "lon": -86.1855439,
    "name": "WHITE RIVER AT INDIANAPOLIS MUSEUM OF ART, IN"
  },
  "03351350": {
    "comid": "18476871",
    "lat": 39.78866667,
    "lon": -86.1981111,
    "name": "WHITE RIVER AT 16TH STREET AT INDIANAPOLIS, IN"
  },
  "03352953": {
    "comid": "18476879",
    "lat": 39.7747654,
    "lon": -86.18970989,
    "name": "WHITE RIVER AT MICHIGAN STREET AT INDIANAPOLIS, IN"
  },
  "03353000": {
    "comid": "18476879",
    "lat": 39.73713889,
    "lon": -86.1696944,
    "name": "WHITE RIVER AT INDIANAPOLIS, IN"
  },
  "03353611": {
    "comid": "18476893",
    "lat": 39.7144889,
    "lon": -86.2005434,
    "name": "WHITE R. AT STOUT GEN. STN. AT INDIANAPOLIS, IN"
  },
  "03354000": {
    "comid": "18477453",
    "lat": 39.4975477,
    "lon": -86.4005495,
    "name": "WHITE RIVER NEAR CENTERTON, IN"
  },
  "03357000": {
    "comid": "18469766",
    "lat": 39.2811561,
    "lon": -86.762228,
    "name": "WHITE RIVER AT SPENCER, IN"
  },
  "03360500": {
    "comid": "18470962",
    "lat": 38.9281111,
    "lon": -87.0192778,
    "name": "WHITE RIVER AT NEWBERRY, IN"
  },
  "03364000": {
    "comid": "18458315",
    "lat": 39.2000516,
    "lon": -85.9255464,
    "name": "EAST FORK WHITE RIVER AT COLUMBUS, IN"
  },
  "03365500": {
    "comid": "18455443",
    "lat": 38.982553,
    "lon": -85.8991444,
    "name": "EAST FORK WHITE RIVER AT SEYMOUR, IN"
  },
  "03371500": {
    "comid": "18445664",
    "lat": 38.77033029,
    "lon": -86.4097115,
    "name": "EAST FORK WHITE RIVER NEAR BEDFORD, IN"
  },
  "03373500": {
    "comid": "18445710",
    "lat": 38.66699568,
    "lon": -86.79194299,
    "name": "EAST FORK WHITE RIVER AT SHOALS, IN"
  },
  "03374000": {
    "comid": "18471066",
    "lat": 38.51088224,
    "lon": -87.2894583,
    "name": "WHITE RIVER AT PETERSBURG, IN"
  },
  "03374100": {
    "comid": "18471310",
    "lat": 38.4897695,
    "lon": -87.55002269,
    "name": "WHITE RIVER AT HAZLETON, IN"
  },
  "03377500": {
    "comid": "10382055",
    "lat": 38.3983333,
    "lon": -87.75638889,
    "name": "WABASH RIVER AT MT. CARMEL, IL"
  },
  "03378500": {
    "comid": "10382125",
    "lat": 38.130879,
    "lon": -87.941419,
    "name": "WABASH RIVER AT NEW HARMONY, IN"
  },
  "03381500": {
    "comid": "10437194",
    "lat": 38.06055556,
    "lon": -88.1572222,
    "name": "LITTLE WABASH RIVER AT CARMI, IL"
  },
  "03381700": {
    "comid": "11866736",
    "lat": 37.69194444,
    "lon": -88.1333333,
    "name": "OHIO RIVER AT OLD SHAWNEETOWN, IL-KY"
  },
  "03399800": null,
  "03404500": {
    "comid": "10192068",
    "lat": 36.8373036,
    "lon": -84.3432703,
    "name": "CUMBERLAND RIVER AT CUMBERLAND FALLS, KY"
  },
  "03410210": {
    "comid": "12154474",
    "lat": 36.47738108,
    "lon": -84.6693676,
    "name": "SOUTH FK CUMBERLAND RIVER AT LEATHERWOOD FORD, TN"
  },
  "03421000": {
    "comid": "18432749",
    "lat": 35.7082839,
    "lon": -85.7318338,
    "name": "COLLINS RIVER NEAR MCMINNVILLE, TN"
  },
  "03424860": {
    "comid": "18421703",
    "lat": 36.1861111,
    "lon": -85.9044444,
    "name": "CANEY FORK AT STONEWALL"
  },
  "03430200": {
    "comid": "18401497",
    "lat": 36.1864446,
    "lon": -86.6327739,
    "name": "STONES RIVER AT US HWY 70 NEAR DONELSON, TN"
  },
  "03431500": {
    "comid": "18408692",
    "lat": 36.1614984,
    "lon": -86.7726764,
    "name": "CUMBERLAND RIVER AT NASHVILLE, TN"
  },
  "03431790": null,
  "03434500": {
    "comid": "18393278",
    "lat": 36.1220032,
    "lon": -87.09889379,
    "name": "HARPETH RIVER NEAR KINGSTON SPRINGS, TN"
  },
  "03436100": {
    "comid": "10169834",
    "lat": 36.5547222,
    "lon": -87.1419444,
    "name": "RED RIVER AT PORT ROYAL, TN"
  },
  "03441000": {
    "comid": "22164500",
    "lat": 35.27305556,
    "lon": -82.7058333,
    "name": "DAVIDSON RIVER NEAR BREVARD, NC"
  },
  "03450000": {
    "comid": "22161670",
    "lat": 35.65305556,
    "lon": -82.4052778,
    "name": "BEETREE CREEK NEAR SWANNANOA, NC"
  },
  "03451500": {
    "comid": "22162094",
    "lat": 35.60888889,
    "lon": -82.5780556,
    "name": "FRENCH BROAD RIVER AT ASHEVILLE, NC"
  },
  "03453500": {
    "comid": "22161966",
    "lat": 35.78638889,
    "lon": -82.6608333,
    "name": "FRENCH BROAD RIVER AT MARSHALL, NC"
  },
  "03454500": {
    "comid": "22161878",
    "lat": 35.88991667,
    "lon": -82.821,
    "name": "FRENCH BROAD RIVER AT HOT SPRINGS, NC"
  },
  "03455000": {
    "comid": "22162876",
    "lat": 35.98151389,
    "lon": -83.1612083,
    "name": "FRENCH BROAD RIVER NEAR NEWPORT, TN"
  },
  "03455500": {
    "comid": "22152669",
    "lat": 35.3961111,
    "lon": -82.9375,
    "name": "W F PIGEON R ABOVE LAKE LOGAN NR HAZELWOOD, NC"
  },
  "03461500": {
    "comid": "22150583",
    "lat": 35.96065267,
    "lon": -83.1743237,
    "name": "PIGEON RIVER AT NEWPORT, TN"
  },
  "03465500": {
    "comid": "19487554",
    "lat": 36.1764961,
    "lon": -82.457364,
    "name": "NOLICHUCKY RIVER AT EMBREEVILLE, TN"
  },
  "03466500": {
    "comid": "25397538",
    "lat": 36.06562706,
    "lon": -82.86644949,
    "name": "NOLICHUCKY RIVER BELOW NOLICHUCKY DAM, TN"
  },