{
  "version": "v15.0",
  "generated_at": "2026-05-04T22:13:12Z",
  "n_stations": 9851,
  "n_states_attempted": 53,
  "n_states_failed": 1,
  "states_failed": [
    [
      "VI",
      "HTTP Error 404: "
    ]
  ],
  "stations": [
    {
      "id": "01010000",
      "site_no": "01010000",
      "name": "St. John River at Ninemile Bridge, Maine",
      "state": "23",
      "state_cd": "23",
      "huc_cd": "01010001",
      "lat": 46.70055556,
      "lon": -69.7155556,
      "drain_area_sqmi": 1338.0,
      "alt_ft": 930.63,
      "site_type_cd": "ST"
    },
    {
      "id": "01010070",
      "site_no": "01010070",
      "name": "Big Black River near Depot Mtn, Maine",
      "state": "23",
      "state_cd": "23",
      "huc_cd": "01010001",
      "lat": 46.89388889,
      "lon": -69.7516667,
      "drain_area_sqmi": 194.0,
      "alt_ft": 875.34,
      "site_type_cd": "ST"
    },
    {
      "id": "01010500",
      "site_no": "01010500",
      "name": "St. John River at Dickey, Maine",
      "state": "23",
      "state_cd": "23",
      "huc_cd": "01010001",
      "lat": 47.11305556,
      "lon": -69.0880556,
      "drain_area_sqmi": 2695.0,
      "alt_ft": 590.11,
      "site_type_cd": "ST"
    },
    {
      "id": "01011000",
      "site_no": "01011000",
      "name": "Allagash River near Allagash, Maine",
      "state": "23",
      "state_cd": "23",
      "huc_cd": "01010002",
      "lat": 47.0697222,
      "lon": -69.0794444,
      "drain_area_sqmi": 1478.0,
      "alt_ft": 604.33,
      "site_type_cd": "ST"
    },
    {
      "id": "01013500",
      "site_no": "01013500",
      "name": "Fish River near Fort Kent, Maine",
      "state": "23",
      "state_cd": "23",
      "huc_cd": "01010003",
      "lat": 47.2375,
      "lon": -68.58277778,
      "drain_area_sqmi": 870.0,
      "alt_ft": 510.64,
      "site_type_cd": "ST"
    },
    {
      "id": "01014000",
      "site_no": "01014000",
      "name": "St. John River below Fish R, nr Fort Kent, Maine",
      "state": "23",
      "state_cd": "23",
      "huc_cd": "01010008",
      "lat": 47.2833333,
      "lon": -68.58527778,
      "drain_area_sqmi": 5929.0,
      "alt_ft": 481.6,
      "site_type_cd": "ST"
    },
    {
      "id": "01015800",
      "site_no": "01015800",
      "name": "Aroostook River near Masardis, Maine",
      "state": "23",
      "state_cd": "23",
      "huc_cd": "01010004",
      "lat": 46.52305556,
      "lon": -68.3716667,
      "drain_area_sqmi": 894.0,
      "alt_ft": 530.02,
      "site_type_cd": "ST"
    },
    {
      "id": "01017000",
      "site_no": "01017000",
      "name": "Aroostook River at Washburn, Maine",
      "state": "23",
      "state_cd": "23",
      "huc_cd": "01010004",
      "lat": 46.7772222,
      "lon": -68.1572222,
      "drain_area_sqmi": 1653.0,
      "alt_ft": 435.68,
      "site_type_cd": "ST"
    },
    {
      "id": "01017060",
      "site_no": "01017060",
      "name": "Hardwood Brook below Glidden Brk nr Caribou, Maine",
      "state": "23",
      "state_cd": "23",
      "huc_cd": "01010004",
      "lat": 46.7836111,
      "lon": -67.9891667,
      "drain_area_sqmi": 5.72,
      "alt_ft": 486.42,
      "site_type_cd": "ST"
    },
    {
      "id": "01017290",
      "site_no": "01017290",
      "name": "Little Madawaska River at Caribou, Maine",
      "state": "23",
      "state_cd": "23",
      "huc_cd": "01010004",
      "lat": 46.8886111,
      "lon": -67.945,
      "drain_area_sqmi": 233.0,
      "alt_ft": 399.71,
      "site_type_cd": "ST"
    },
    {
      "id": "01017550",
      "site_no": "01017550",
      "name": "Williams Brook at Phair, Maine",
      "state": "23",
      "state_cd": "23",
      "huc_cd": "01010005",
      "lat": 46.62805556,
      "lon": -67.9530556,
      "drain_area_sqmi": 3.97,
      "alt_ft": 572.46,
      "site_type_cd": "ST"
    },
    {
      "id": "01017960",
      "site_no": "01017960",
      "name": "Meduxnekeag R above S Br Medux. R nr Houlton, ME",
      "state": "23",
      "state_cd": "23",
      "huc_cd": "01010005",
      "lat": 46.105,
      "lon": -67.88138889,
      "drain_area_sqmi": 87.4,
      "alt_ft": 347.92,
      "site_type_cd": "ST"
    },
    {
      "id": "01018009",
      "site_no": "01018009",
      "name": "Pearce Brook at Route 1 at Houlton, Maine",
      "state": "23",
      "state_cd": "23",
      "huc_cd": "01010005",
      "lat": 46.11527778,
      "lon": -67.84027778,
      "drain_area_sqmi": 6.88,
      "alt_ft": 356.5,
      "site_type_cd": "ST"
    },
    {
      "id": "01018035",
      "site_no": "01018035",
      "name": "Meduxnekeag River at Lowery Rd. nr Houlton, Maine",
      "state": "23",
      "state_cd": "23",
      "huc_cd": "01010005",
      "lat": 46.1811111,
      "lon": -67.80388889,
      "drain_area_sqmi": 255.0,
      "alt_ft": 285.2,
      "site_type_cd": "ST"
    },
    {
      "id": "01018500",
      "site_no": "01018500",
      "name": "St. Croix River at Vanceboro, Maine",
      "state": "23",
      "state_cd": "23",
      "huc_cd": "01050001",
      "lat": 45.5683333,
      "lon": -67.4283333,
      "drain_area_sqmi": 410.0,
      "alt_ft": 367.07,
      "site_type_cd": "ST"
    },
    {
      "id": "01019000",
      "site_no": "01019000",
      "name": "Grand Lake Stream at Grand Lake Stream, Maine",
      "state": "23",
      "state_cd": "23",
      "huc_cd": "01050001",
      "lat": 45.1725,
      "lon": -67.76888889,
      "drain_area_sqmi": 224.0,
      "alt_ft": 273.58,
      "site_type_cd": "ST"
    },
    {
      "id": "01021000",
      "site_no": "01021000",
      "name": "St. Croix River at Baring, Maine",
      "state": "23",
      "state_cd": "23",
      "huc_cd": "01050001",
      "lat": 45.1369444,
      "lon": -67.3180556,
      "drain_area_sqmi": 1366.0,
      "alt_ft": 66.16,
      "site_type_cd": "ST"
    },
    {
      "id": "01021470",
      "site_no": "01021470",
      "name": "Libby Brook near Northfield, Maine",
      "state": "23",
      "state_cd": "23",
      "huc_cd": "01050002",
      "lat": 44.8008333,
      "lon": -67.725,
      "drain_area_sqmi": 6.42,
      "alt_ft": 132.81,
      "site_type_cd": "ST"
    },
    {
      "id": "01021480",
      "site_no": "01021480",
      "name": "Old Stream near Wesley, Maine",
      "state": "23",
      "state_cd": "23",
      "huc_cd": "01050002",
      "lat": 44.9369444,
      "lon": -67.7361111,
      "drain_area_sqmi": 29.9,
      "alt_ft": 164.57,
      "site_type_cd": "ST"
    },
    {
      "id": "01022500",
      "site_no": "01022500",
      "name": "Narraguagus River at Cherryfield, Maine",
      "state": "23",
      "state_cd": "23",
      "huc_cd": "01050002",
      "lat": 44.60805556,
      "lon": -67.93527778,
      "drain_area_sqmi": 227.0,
      "alt_ft": 43.89,
      "site_type_cd": "ST"
    },
    {
      "id": "01022840",
      "site_no": "01022840",
      "name": "Otter Creek near Bar Harbor, Maine",
      "state": "23",
      "state_cd": "23",
      "huc_cd": "01050002",
      "lat": 44.33277778,
      "lon": -68.2066667,
      "drain_area_sqmi": 1.36,
      "alt_ft": 85.14,
      "site_type_cd": "ST"
    },
    {
      "id": "01027200",
      "site_no": "01027200",
      "name": "North Branch Penobscot River nr Pittston Farm, ME",
      "state": "23",
      "state_cd": "23",
      "huc_cd": "01020001",
      "lat": 45.93527778,
      "lon": -69.9936111,
      "drain_area_sqmi": 223.0,
      "alt_ft": 1085.69,
      "site_type_cd": "ST"
    },
    {
      "id": "01027240",
      "site_no": "01027240",
      "name": "S. Br. Penobscot River nr Canada Falls Lake, Maine",
      "state": "23",
      "state_cd": "23",
      "huc_cd": "01020001",
      "lat": 45.8739222,
      "lon": -69.9950083,
      "drain_area_sqmi": 183.0,
      "alt_ft": 1200.3,
      "site_type_cd": "ST"
    },
    {
      "id": "01029100",
      "site_no": "01029100",
      "name": "E. Br. Penobscot River below Grand Lake Matagamon",
      "state": "23",
      "state_cd": "23",
      "huc_cd": "01020002",
      "lat": 46.1343611,
      "lon": -68.7939056,
      "drain_area_sqmi": 493.0,
      "alt_ft": 626.0,
      "site_type_cd": "ST"
    },
    {
      "id": "01029200",
      "site_no": "01029200",
      "name": "Seboeis River near Shin Pond, Maine",
      "state": "23",
      "state_cd": "23",
      "huc_cd": "01020002",
      "lat": 46.14305556,
      "lon": -68.6336111,
      "drain_area_sqmi": 174.0,
      "alt_ft": 511.83,
      "site_type_cd": "ST"
    },
    {
      "id": "01029500",
      "site_no": "01029500",
      "name": "East Branch Penobscot River at Grindstone, Maine",
      "state": "23",
      "state_cd": "23",
      "huc_cd": "01020002",
      "lat": 45.73027778,
      "lon": -68.5894444,
      "drain_area_sqmi": 837.0,
      "alt_ft": 294.1,
      "site_type_cd": "ST"
    },
    {
      "id": "01030350",
      "site_no": "01030350",
      "name": "Wytopitlock Stream near Wytopitlock Maine",
      "state": "23",
      "state_cd": "23",
      "huc_cd": "01020003",
      "lat": 45.7086111,
      "lon": -68.1580556,
      "drain_area_sqmi": 48.9,
      "alt_ft": 381.37,
      "site_type_cd": "ST"
    },
    {
      "id": "01030500",
      "site_no": "01030500",
      "name": "Mattawamkeag River near Mattawamkeag, Maine",
      "state": "23",
      "state_cd": "23",
      "huc_cd": "01020003",
      "lat": 45.5011111,
      "lon": -68.3058333,
      "drain_area_sqmi": 1419.0,
      "alt_ft": 210.62,
      "site_type_cd": "ST"
    },
    {
      "id": "01031300",
      "site_no": "01031300",
      "name": "Piscataquis River at Blanchard, Maine",
      "state": "23",
      "state_cd": "23",
      "huc_cd": "01020004",
      "lat": 45.2672222,
      "lon": -69.58388889,
      "drain_area_sqmi": 115.0,
      "alt_ft": 563.35,
      "site_type_cd": "ST"
    },
    {
      "id": "01031450",
      "site_no": "01031450",
      "name": "Kingsbury Stream at Abbot Village, Maine",
      "state": "23",
      "state_cd": "23",
      "huc_cd": "01020004",
      "lat": 45.1844444,
      "lon": -69.4522222,
      "drain_area_sqmi": 95.0,
      "alt_ft": 422.35,
      "site_type_cd": "ST"
    },
    {
      "id": "01031500",
      "site_no": "01031500",
      "name": "Piscataquis River near Dover-Foxcroft, Maine",
      "state": "23",
      "state_cd": "23",
      "huc_cd": "01020004",
      "lat": 45.175,
      "lon": -69.3147222,
      "drain_area_sqmi": 296.0,
      "alt_ft": 357.66,
      "site_type_cd": "ST"
    },
    {
      "id": "01031510",
      "site_no": "01031510",
      "name": "Black Stream near Dover-Foxcroft, Maine",
      "state": "23",
      "state_cd": "23",
      "huc_cd": "01020004",
      "lat": 45.15027778,
      "lon": -69.23638889,
      "drain_area_sqmi": 26.7,
      "alt_ft": 403.16,
      "site_type_cd": "ST"
    },
    {
      "id": "01033000",
      "site_no": "01033000",
      "name": "Sebec River at Sebec, Maine",
      "state": "23",
      "state_cd": "23",
      "huc_cd": "01020004",
      "lat": 45.27,
      "lon": -69.1122222,
      "drain_area_sqmi": 325.0,
      "alt_ft": 295.72,
      "site_type_cd": "ST"
    },
    {
      "id": "01034000",
      "site_no": "01034000",
      "name": "Piscataquis River at Medford, Maine",
      "state": "23",
      "state_cd": "23",
      "huc_cd": "01020004",
      "lat": 45.26055556,
      "lon": -68.8686111,
      "drain_area_sqmi": 1162.0,
      "alt_ft": 247.87,
      "site_type_cd": "ST"
    },
    {
      "id": "01034500",
      "site_no": "01034500",
      "name": "Penobscot River at West Enfield, Maine",
      "state": "23",
      "state_cd": "23",
      "huc_cd": "01020005",
      "lat": 45.2361111,
      "lon": -68.65138889,
      "drain_area_sqmi": 6422.0,
      "alt_ft": 125.41,
      "site_type_cd": "ST"
    },
    {
      "id": "01036390",
      "site_no": "01036390",
      "name": "Penobscot River at Eddington, Maine",
      "state": "23",
      "state_cd": "23",
      "huc_cd": "01020005",
      "lat": 44.82666667,
      "lon": -68.6966667,
      "drain_area_sqmi": 7515.0,
      "alt_ft": 6.6,
      "site_type_cd": "ST-TS"
    },
    {
      "id": "01037000",
      "site_no": "01037000",
      "name": "Kenduskeag Stream near Bangor, Maine",
      "state": "23",
      "state_cd": "23",
      "huc_cd": "01020005",
      "lat": 44.8611111,
      "lon": -68.8316667,
      "drain_area_sqmi": 195.0,
      "alt_ft": 69.44,
      "site_type_cd": "ST"
    },
    {
      "id": "01037380",
      "site_no": "01037380",
      "name": "Ducktrap River near Lincolnville, Maine",
      "state": "23",
      "state_cd": "23",
      "huc_cd": "01050002",
      "lat": 44.32916667,
      "lon": -69.0608333,
      "drain_area_sqmi": 15.1,
      "alt_ft": 129.07,
      "site_type_cd": "ST"
    },
    {
      "id": "01038000",
      "site_no": "01038000",
      "name": "Sheepscot River at North Whitefield, Maine",
      "state": "23",
      "state_cd": "23",
      "huc_cd": "01050003",
      "lat": 44.22277778,
      "lon": -69.59388889,
      "drain_area_sqmi": 146.0,
      "alt_ft": 100.39,
      "site_type_cd": "ST"
    },
    {
      "id": "01042500",
      "site_no": "01042500",
      "name": "Kennebec River at The Forks, Maine",
      "state": "23",
      "state_cd": "23",
      "huc_cd": "01030001",
      "lat": 45.3397222,
      "lon": -69.9619444,
      "drain_area_sqmi": 1590.0,
      "alt_ft": 568.58,
      "site_type_cd": "ST"
    },
    {
      "id": "01043500",
      "site_no": "01043500",
      "name": "Dead River near Dead River, Maine",
      "state": "23",
      "state_cd": "23",
      "huc_cd": "01030002",
      "lat": 45.22905,
      "lon": -70.20112778,
      "drain_area_sqmi": 519.0,
      "alt_ft": 1044.87,
      "site_type_cd": "ST"
    },
    {
      "id": "01044550",
      "site_no": "01044550",
      "name": "Spencer Stream near Grand Falls, Maine",
      "state": "23",
      "state_cd": "23",
      "huc_cd": "01030002",
      "lat": 45.3136111,
      "lon": -70.2416667,
      "drain_area_sqmi": 199.0,
      "alt_ft": 1012.57,
      "site_type_cd": "ST"
    },
    {
      "id": "01046000",
      "site_no": "01046000",
      "name": "Austin Stream at Bingham, Maine",
      "state": "23",
      "state_cd": "23",
      "huc_cd": "01030003",
      "lat": 45.0644444,
      "lon": -69.8805556,
      "drain_area_sqmi": 90.2,
      "alt_ft": 349.35,
      "site_type_cd": "ST"
    },
    {
      "id": "01046500",
      "site_no": "01046500",
      "name": "Kennebec River at Bingham, Maine",
      "state": "23",
      "state_cd": "23",
      "huc_cd": "01030003",
      "lat": 45.0519444,
      "lon": -69.8855556,
      "drain_area_sqmi": 2724.0,
      "alt_ft": 329.98,
      "site_type_cd": "ST"
    },
    {
      "id": "01047000",
      "site_no": "01047000",
      "name": "Carrabassett River near North Anson, Maine",
      "state": "23",
      "state_cd": "23",
      "huc_cd": "01030003",
      "lat": 44.86916667,
      "lon": -69.955,
      "drain_area_sqmi": 352.0,
      "alt_ft": 302.84,
      "site_type_cd": "ST"
    },
    {
      "id": "01047150",
      "site_no": "01047150",
      "name": "Kennebec River near Madison, Maine",
      "state": "23",
      "state_cd": "23",
      "huc_cd": "01030003",
      "lat": 44.77888889,
      "lon": -69.8869444,
      "drain_area_sqmi": 3256.0,
      "alt_ft": 162.14,
      "site_type_cd": "ST"
    },
    {
      "id": "01047200",
      "site_no": "01047200",
      "name": "Sandy River near Madrid, Maine",
      "state": "23",
      "state_cd": "23",
      "huc_cd": "01030003",
      "lat": 44.85777778,
      "lon": -70.48527778,
      "drain_area_sqmi": 25.1,
      "alt_ft": 915.4,
      "site_type_cd": "ST"
    },
    {
      "id": "01048000",
      "site_no": "01048000",
      "name": "Sandy River near Mercer, Maine",
      "state": "23",
      "state_cd": "23",
      "huc_cd": "01030003",
      "lat": 44.70805556,
      "lon": -69.9375,
      "drain_area_sqmi": 516.0,
      "alt_ft": 195.79,
      "site_type_cd": "ST"
    },
    {
      "id": "01048220",
      "site_no": "01048220",
      "name": "East Branch Wesserunsett Stream near Athens, Maine",
      "state": "23",
      "state_cd": "23",
      "huc_cd": "01030003",
      "lat": 44.9475,
      "lon": -69.6569444,
      "drain_area_sqmi": 19.6,
      "alt_ft": 420.16,
      "site_type_cd": "ST"
    },
    {
      "id": "01049265",
      "site_no": "01049265",
      "name": "Kennebec River at North Sidney, Maine",
      "state": "23",
      "state_cd": "23",
      "huc_cd": "01030003",
      "lat": 44.4722222,
      "lon": -69.68388889,
      "drain_area_sqmi": 5413.0,
      "alt_ft": 14.17,
      "site_type_cd": "ST"
    },
    {
      "id": "01049500",
      "site_no": "01049500",
      "name": "Cobbosseecontee Stream at Gardiner, Maine",
      "state": "23",
      "state_cd": "23",
      "huc_cd": "01030003",
      "lat": 44.22916667,
      "lon": -69.7780556,
      "drain_area_sqmi": 216.0,
      "alt_ft": 19.28,
      "site_type_cd": "ST"
    },
    {
      "id": "01052500",
      "site_no": "01052500",
      "name": "Diamond River near Wentworth Location, NH",
      "state": "33",
      "state_cd": "33",
      "huc_cd": "01040001",
      "lat": 44.8775,
      "lon": -71.0575,
      "drain_area_sqmi": 152.0,
      "alt_ft": 1258.84,
      "site_type_cd": "ST"
    },
    {
      "id": "01053500",
      "site_no": "01053500",
      "name": "Androscoggin River at Errol, NH",
      "state": "33",
      "state_cd": "33",
      "huc_cd": "01040001",
      "lat": 44.7825,
      "lon": -71.1286111,
      "drain_area_sqmi": 1046.0,
      "alt_ft": 1226.59,
      "site_type_cd": "ST"
    },
    {
      "id": "01053600",
      "site_no": "01053600",
      "name": "Androscoggin River below Bog Brook at Cambridge NH",
      "state": "33",
      "state_cd": "33",
      "huc_cd": "01040001",
      "lat": 44.6661111,
      "lon": -71.18138889,
      "drain_area_sqmi": 1177.0,
      "alt_ft": 1172.7,
      "site_type_cd": "ST"
    },
    {
      "id": "01054000",
      "site_no": "01054000",
      "name": "Androscoggin River near Gorham, NH",
      "state": "33",
      "state_cd": "33",
      "huc_cd": "01040001",
      "lat": 44.4358333,
      "lon": -71.19027778,
      "drain_area_sqmi": 1361.0,
      "alt_ft": 832.67,
      "site_type_cd": "ST"
    },
    {
      "id": "01054114",
      "site_no": "01054114",
      "name": "Peabody River at Gorham, New Hampshire",
      "state": "33",
      "state_cd": "33",
      "huc_cd": "01040002",
      "lat": 44.38131944,
      "lon": -71.1706556,
      "drain_area_sqmi": 46.27,
      "alt_ft": 794.41,
      "site_type_cd": "ST"
    },
    {
      "id": "01054200",
      "site_no": "01054200",
      "name": "Wild River at Gilead, Maine",
      "state": "23",
      "state_cd": "23",
      "huc_cd": "01040002",
      "lat": 44.39055556,
      "lon": -70.9797222,
      "drain_area_sqmi": 70.1,
      "alt_ft": 682.57,
      "site_type_cd": "ST"
    },
    {
      "id": "01054300",
      "site_no": "01054300",
      "name": "Ellis River at South Andover, Maine",
      "state": "23",
      "state_cd": "23",
      "huc_cd": "01040002",
      "lat": 44.5933333,
      "lon": -70.7330556,
      "drain_area_sqmi": 131.0,
      "alt_ft": 619.16,
      "site_type_cd": "ST"
    },
    {
      "id": "01054500",
      "site_no": "01054500",
      "name": "Androscoggin River at Rumford, Maine",
      "state": "23",
      "state_cd": "23",
      "huc_cd": "01040002",
      "lat": 44.5519444,
      "lon": -70.5441667,
      "drain_area_sqmi": 2067.0,
      "alt_ft": 419.47,
      "site_type_cd": "ST"
    },
    {
      "id": "01055000",
      "site_no": "01055000",
      "name": "Swift River near Roxbury, Maine",
      "state": "23",
      "state_cd": "23",
      "huc_cd": "01040002",
      "lat": 44.64277778,
      "lon": -70.58888889,
      "drain_area_sqmi": 96.4,
      "alt_ft": 615.27,
      "site_type_cd": "ST"
    },
    {
      "id": "01055500",
      "site_no": "01055500",
      "name": "Nezinscot River at Turner Center, Maine",
      "state": "23",
      "state_cd": "23",
      "huc_cd": "010400020704",
      "lat": 44.26944444,
      "lon": -70.22972222,
      "drain_area_sqmi": 170.0,
      "alt_ft": 275.08,
      "site_type_cd": "ST"
    },
    {
      "id": "01057000",
      "site_no": "01057000",
      "name": "Little Androscoggin River near South Paris, Maine",
      "state": "23",
      "state_cd": "23",
      "huc_cd": "01040002",
      "lat": 44.30388889,
      "lon": -70.5397222,
      "drain_area_sqmi": 73.9,
      "alt_ft": 446.18,
      "site_type_cd": "ST"
    },
    {
      "id": "01059000",
      "site_no": "01059000",
      "name": "Androscoggin River near Auburn, Maine",
      "state": "23",
      "state_cd": "23",
      "huc_cd": "01040002",
      "lat": 44.0722222,
      "lon": -70.2080556,
      "drain_area_sqmi": 3266.0,
      "alt_ft": 108.61,
      "site_type_cd": "ST"
    },
    {
      "id": "01060000",
      "site_no": "01060000",
      "name": "Royal River at Yarmouth, Maine",
      "state": "23",
      "state_cd": "23",
      "huc_cd": "01060001",
      "lat": 43.79915,
      "lon": -70.1782694,
      "drain_area_sqmi": 142.0,
      "alt_ft": 9.18,
      "site_type_cd": "ST"
    },
    {
      "id": "01063310",
      "site_no": "01063310",
      "name": "Stony Brook at East Sebago, Maine",
      "state": "23",
      "state_cd": "23",
      "huc_cd": "01060001",
      "lat": 43.85555556,
      "lon": -70.6397222,
      "drain_area_sqmi": 1.3,
      "alt_ft": 274.74,
      "site_type_cd": "ST"
    },
    {
      "id": "01064140",
      "site_no": "01064140",
      "name": "Presumpscot River near West Falmouth, Maine",
      "state": "23",
      "state_cd": "23",
      "huc_cd": "01060001",
      "lat": 43.7245972,
      "lon": -70.3029333,
      "drain_area_sqmi": 598.0,
      "alt_ft": 10.54,
      "site_type_cd": "ST"
    },
    {
      "id": "010642505",
      "site_no": "010642505",
      "name": "SACO RIVER AT RIVER STREET, AT BARTLETT, NH",
      "state": "33",
      "state_cd": "33",
      "huc_cd": "01060002",
      "lat": 44.08388889,
      "lon": -71.2855556,
      "drain_area_sqmi": 91.0,
      "alt_ft": 660.49,
      "site_type_cd": "ST"
    },
    {
      "id": "01064500",
      "site_no": "01064500",
      "name": "Saco River near Conway, NH",
      "state": "33",
      "state_cd": "33",
      "huc_cd": "01060002",
      "lat": 43.9908333,
      "lon": -71.0905556,
      "drain_area_sqmi": 385.0,
      "alt_ft": 417.83,
      "site_type_cd": "ST"
    },
    {
      "id": "01064801",
      "site_no": "01064801",
      "name": "BEARCAMP RIVER AT SOUTH TAMWORTH, NH",
      "state": "33",
      "state_cd": "33",
      "huc_cd": "01060002",
      "lat": 43.83007396,
      "lon": -71.2878488,
      "drain_area_sqmi": 67.6,
      "alt_ft": 492.91,
      "site_type_cd": "ST"
    },
    {
      "id": "01066000",
      "site_no": "01066000",
      "name": "Saco River at Cornish, Maine",
      "state": "23",
      "state_cd": "23",
      "huc_cd": "01060002",
      "lat": 43.80805556,
      "lon": -70.7816667,
      "drain_area_sqmi": 1294.0,
      "alt_ft": 262.92,
      "site_type_cd": "ST"
    },
    {
      "id": "01067950",
      "site_no": "01067950",
      "name": "Kennebunk River near Kennebunk, Maine",
      "state": "23",
      "state_cd": "23",
      "huc_cd": "01060003",
      "lat": 43.4322222,
      "lon": -70.5533333,
      "drain_area_sqmi": 26.1,
      "alt_ft": 54.17,
      "site_type_cd": "ST"
    },
    {
      "id": "01068910",
      "site_no": "01068910",
      "name": "Mousam River at Route 4 near Sanford, Maine",
      "state": "23",
      "state_cd": "23",
      "huc_cd": "01060003",
      "lat": 43.4183333,
      "lon": -70.7380556,
      "drain_area_sqmi": 44.9,
      "alt_ft": 228.6,
      "site_type_cd": "ST"
    },
    {
      "id": "01069500",
      "site_no": "01069500",
      "name": "Mousam River near West Kennebunk, Maine",
      "state": "23",
      "state_cd": "23",
      "huc_cd": "01060003",
      "lat": 43.4183333,
      "lon": -70.6583333,
      "drain_area_sqmi": 98.8,
      "alt_ft": 164.48,
      "site_type_cd": "ST"
    },
    {
      "id": "01069700",
      "site_no": "01069700",
      "name": "Branch Brook near Kennebunk, Maine",
      "state": "23",
      "state_cd": "23",
      "huc_cd": "01060003",
      "lat": 43.37916667,
      "lon": -70.5833333,
      "drain_area_sqmi": 9.19,
      "alt_ft": 41.92,
      "site_type_cd": "ST"
    },
    {
      "id": "01072800",
      "site_no": "01072800",
      "name": "COCHECO RIVER NEAR ROCHESTER, NH",
      "state": "33",
      "state_cd": "33",
      "huc_cd": "01060003",
      "lat": 43.26841527,
      "lon": -70.9736739,
      "drain_area_sqmi": 79.9,
      "alt_ft": 118.77,
      "site_type_cd": "ST"
    },
    {
      "id": "01072870",
      "site_no": "01072870",
      "name": "ISINGLASS R AT ROCHESTER NECK RD, NR DOVER, NH",
      "state": "33",
      "state_cd": "33",
      "huc_cd": "01060003",
      "lat": 43.23480487,
      "lon": -70.9564507,
      "drain_area_sqmi": 73.6,
      "alt_ft": 107.8,
      "site_type_cd": "ST"
    },
    {
      "id": "01073000",
      "site_no": "01073000",
      "name": "OYSTER RIVER NEAR DURHAM, NH",
      "state": "33",
      "state_cd": "33",
      "huc_cd": "01060003",
      "lat": 43.1486955,
      "lon": -70.9650603,
      "drain_area_sqmi": 12.1,
      "alt_ft": 64.58,
      "site_type_cd": "ST"
    },
    {
      "id": "01073319",
      "site_no": "01073319",
      "name": "LAMPREY RIVER AT LANGFORD ROAD, AT RAYMOND, NH",
      "state": "33",
      "state_cd": "33",
      "huc_cd": "01060003",
      "lat": 43.04138889,
      "lon": -71.2016667,
      "drain_area_sqmi": 55.7,
      "alt_ft": 182.49,
      "site_type_cd": "ST"
    },
    {
      "id": "01073500",
      "site_no": "01073500",
      "name": "LAMPREY RIVER NEAR NEWMARKET, NH",
      "state": "33",
      "state_cd": "33",
      "huc_cd": "01060003",
      "lat": 43.10258558,
      "lon": -70.952559,
      "drain_area_sqmi": 185.0,
      "alt_ft": 37.55,
      "site_type_cd": "ST"
    },
    {
      "id": "010735562",
      "site_no": "010735562",
      "name": "EXETER RIVER AT ODELL ROAD, NEAR SANDOWN, NH",
      "state": "33",
      "state_cd": "33",
      "huc_cd": "01060003",
      "lat": 42.94897557,
      "lon": -71.16478279,
      "drain_area_sqmi": 16.1,
      "alt_ft": 175.65,
      "site_type_cd": "ST"
    },
    {
      "id": "01073587",
      "site_no": "01073587",
      "name": "EXETER RIVER AT HAIGH ROAD, NEAR BRENTWOOD, NH",
      "state": "33",
      "state_cd": "33",
      "huc_cd": "01060003",
      "lat": 42.9845316,
      "lon": -71.038392,
      "drain_area_sqmi": 63.5,
      "alt_ft": 59.52,
      "site_type_cd": "ST"
    },
    {
      "id": "01073785",
      "site_no": "01073785",
      "name": "WINNICUT RIVER AT GREENLAND, NR PORTSMOUTH, NH",
      "state": "33",
      "state_cd": "33",
      "huc_cd": "01060003",
      "lat": 43.0358333,
      "lon": -70.8475,
      "drain_area_sqmi": 14.1,
      "alt_ft": 5.28,
      "site_type_cd": "ST"
    },
    {
      "id": "01074520",
      "site_no": "01074520",
      "name": "EAST BRANCH PEMIGEWASSET RIVER AT LINCOLN, NH",
      "state": "33",
      "state_cd": "33",
      "huc_cd": "01070001",
      "lat": 44.0475669,
      "lon": -71.6598029,
      "drain_area_sqmi": 115.0,
      "alt_ft": 820.72,
      "site_type_cd": "ST"
    },
    {
      "id": "01075000",
      "site_no": "01075000",
      "name": "PEMIGEWASSET RIVER AT WOODSTOCK, NH",
      "state": "33",
      "state_cd": "33",
      "huc_cd": "01070001",
      "lat": 43.9761792,
      "lon": -71.6795244,
      "drain_area_sqmi": 193.0,
      "alt_ft": 616.1,
      "site_type_cd": "ST"
    },
    {
      "id": "01076000",
      "site_no": "01076000",
      "name": "BAKER RIVER NEAR RUMNEY, NH",
      "state": "33",
      "state_cd": "33",
      "huc_cd": "01070001",
      "lat": 43.79562647,
      "lon": -71.8453594,
      "drain_area_sqmi": 143.0,
      "alt_ft": 496.94,
      "site_type_cd": "ST"
    },
    {
      "id": "01076500",
      "site_no": "01076500",
      "name": "PEMIGEWASSET RIVER AT PLYMOUTH, NH",
      "state": "33",
      "state_cd": "33",
      "huc_cd": "01070001",
      "lat": 43.7592388,
      "lon": -71.6856337,
      "drain_area_sqmi": 622.0,
      "alt_ft": 456.66,
      "site_type_cd": "ST"
    },
    {
      "id": "01077400",
      "site_no": "01077400",
      "name": "COCKERMOUTH RIVER BELOW HARDY BROOK, AT GROTON, NH",
      "state": "33",
      "state_cd": "33",
      "huc_cd": "01070001",
      "lat": 43.70388889,
      "lon": -71.8333333,
      "drain_area_sqmi": 21.4,
      "alt_ft": 608.42,
      "site_type_cd": "ST"
    },
    {
      "id": "01078000",
      "site_no": "01078000",
      "name": "SMITH RIVER NEAR BRISTOL, NH",
      "state": "33",
      "state_cd": "33",
      "huc_cd": "01070001",
      "lat": 43.56646307,
      "lon": -71.747857,
      "drain_area_sqmi": 85.8,
      "alt_ft": 449.42,
      "site_type_cd": "ST"
    },
    {
      "id": "01081000",
      "site_no": "01081000",
      "name": "WINNIPESAUKEE RIVER AT TILTON, NH",
      "state": "33",
      "state_cd": "33",
      "huc_cd": "01070002",
      "lat": 43.44174376,
      "lon": -71.5875752,
      "drain_area_sqmi": 471.0,
      "alt_ft": 441.4,
      "site_type_cd": "ST"
    },
    {
      "id": "01081500",
      "site_no": "01081500",
      "name": "MERRIMACK RIVER AT FRANKLIN JUNCTION, NH",
      "state": "33",
      "state_cd": "33",
      "huc_cd": "01070002",
      "lat": 43.42285456,
      "lon": -71.6528543,
      "drain_area_sqmi": 1507.0,
      "alt_ft": 250.58,
      "site_type_cd": "ST"
    },
    {
      "id": "01082000",
      "site_no": "01082000",
      "name": "CONTOOCOOK RIVER AT PETERBOROUGH, NH",
      "state": "33",
      "state_cd": "33",
      "huc_cd": "01070003",
      "lat": 42.8625837,
      "lon": -71.95924609,
      "drain_area_sqmi": 68.1,
      "alt_ft": 731.25,
      "site_type_cd": "ST"
    },
    {
      "id": "01083000",
      "site_no": "01083000",
      "name": "NUBANUSIT BK BLW MACDOWELL DAM NR PETERBOROUGH NH",
      "state": "33",
      "state_cd": "33",
      "huc_cd": "01070003",
      "lat": 42.8928607,
      "lon": -71.9867469,
      "drain_area_sqmi": 44.0,
      "alt_ft": 898.68,
      "site_type_cd": "ST"
    },
    {
      "id": "01085000",
      "site_no": "01085000",
      "name": "CONTOOCOOK RIVER NEAR HENNIKER, NH",
      "state": "33",
      "state_cd": "33",
      "huc_cd": "01070003",
      "lat": 43.1520237,
      "lon": -71.85730149,
      "drain_area_sqmi": 368.0,
      "alt_ft": 469.7,
      "site_type_cd": "ST"
    },
    {
      "id": "01085500",
      "site_no": "01085500",
      "name": "CONTOOCOOK R BL HOPKINTON DAM AT W HOPKINTON, NH",
      "state": "33",
      "state_cd": "33",
      "huc_cd": "01070003",
      "lat": 43.1928569,
      "lon": -71.7472995,
      "drain_area_sqmi": 427.0,
      "alt_ft": 355.15,
      "site_type_cd": "ST"
    },
    {
      "id": "01086000",
      "site_no": "01086000",
      "name": "WARNER RIVER AT DAVISVILLE, NH",
      "state": "33",
      "state_cd": "33",
      "huc_cd": "01070003",
      "lat": 43.25091159,
      "lon": -71.7322996,
      "drain_area_sqmi": 146.0,
      "alt_ft": 379.37,
      "site_type_cd": "ST"
    },
    {
      "id": "01087000",
      "site_no": "01087000",
      "name": "BLACKWATER RIVER NEAR WEBSTER, NH",
      "state": "33",
      "state_cd": "33",
      "huc_cd": "01070003",
      "lat": 43.2970225,
      "lon": -71.6945212,
      "drain_area_sqmi": 129.0,
      "alt_ft": 431.17,
      "site_type_cd": "ST"
    },
    {
      "id": "01089500",
      "site_no": "01089500",
      "name": "SUNCOOK RIVER AT NORTH CHICHESTER, NH",
      "state": "33",
      "state_cd": "33",
      "huc_cd": "01070002",
      "lat": 43.25674759,
      "lon": -71.36951248,
      "drain_area_sqmi": 157.0,
      "alt_ft": 328.78,
      "site_type_cd": "ST"
    },
    {
      "id": "01090800",
      "site_no": "01090800",
      "name": "PISCATAQUOG RIVER BL EVERETT DAM, NR E WEARE, NH",
      "state": "33",
      "state_cd": "33",
      "huc_cd": "01070002",
      "lat": 43.0914705,
      "lon": -71.6595182,
      "drain_area_sqmi": 63.1,
      "alt_ft": 319.0,
      "site_type_cd": "ST"
    },
    {
      "id": "01091000",
      "site_no": "01091000",
      "name": "SOUTH BRANCH PISCATAQUOG RIVER NEAR GOFFSTOWN, NH",
      "state": "33",
      "state_cd": "33",
      "huc_cd": "01070002",
      "lat": 43.01480519,
      "lon": -71.64146129,
      "drain_area_sqmi": 104.0,
      "alt_ft": 308.28,
      "site_type_cd": "ST"
    },
    {
      "id": "01091500",
      "site_no": "01091500",
      "name": "PISCATAQUOG RIVER NEAR GOFFSTOWN, NH",
      "state": "33",
      "state_cd": "33",
      "huc_cd": "01070002",
      "lat": 43.01675,
      "lon": -71.5506252,
      "drain_area_sqmi": 202.0,
      "alt_ft": 173.98,
      "site_type_cd": "ST"
    },
    {
      "id": "01092000",
      "site_no": "01092000",
      "name": "MERRIMACK R NR GOFFS FALLS, BELOW MANCHESTER, NH",
      "state": "33",
      "state_cd": "33",
      "huc_cd": "01070002",
      "lat": 42.9481405,
      "lon": -71.4634002,
      "drain_area_sqmi": 3092.0,
      "alt_ft": 108.58,
      "site_type_cd": "ST"
    },
    {
      "id": "01093852",
      "site_no": "01093852",
      "name": "SOUHEGAN RIVER (SITE WLR-1) NEAR MILFORD, NH",
      "state": "33",
      "state_cd": "33",
      "huc_cd": "01070002",
      "lat": 42.8425858,
      "lon": -71.7067399,
      "drain_area_sqmi": 103.0,
      "alt_ft": 264.32,
      "site_type_cd": "ST"
    },
    {
      "id": "01094000",
      "site_no": "01094000",
      "name": "SOUHEGAN RIVER AT MERRIMACK, NH",
      "state": "33",
      "state_cd": "33",
      "huc_cd": "01070002",
      "lat": 42.8575865,
      "lon": -71.5061785,
      "drain_area_sqmi": 171.0,
      "alt_ft": 159.88,
      "site_type_cd": "ST"
    },
    {
      "id": "01094400",
      "site_no": "01094400",
      "name": "NORTH NASHUA RIVER AT FITCHBURG, MA",
      "state": "25",
      "state_cd": "25",
      "huc_cd": "01070004",
      "lat": 42.57620079,
      "lon": -71.7881285,
      "drain_area_sqmi": 64.2,
      "alt_ft": 394.13,
      "site_type_cd": "ST"
    },
    {
      "id": "01094500",
      "site_no": "01094500",
      "name": "NORTH NASHUA RIVER NEAR LEOMINSTER, MA",
      "state": "25",
      "state_cd": "25",
      "huc_cd": "01070004",
      "lat": 42.49506389,
      "lon": -71.7219333,
      "drain_area_sqmi": 110.0,
      "alt_ft": 265.0,
      "site_type_cd": "ST"
    },
    {
      "id": "01095220",
      "site_no": "01095220",
      "name": "STILLWATER RIVER NEAR STERLING, MA",
      "state": "25",
      "state_cd": "25",
      "huc_cd": "01070004",
      "lat": 42.41080875,
      "lon": -71.7911516,
      "drain_area_sqmi": 29.1,
      "alt_ft": 399.28,
      "site_type_cd": "ST"
    },
    {
      "id": "01095375",
      "site_no": "01095375",
      "name": "QUINAPOXET RIVER AT CANADA MILLS NEAR HOLDEN, MA",
      "state": "25",
      "state_cd": "25",
      "huc_cd": "01070004",
      "lat": 42.37286967,
      "lon": -71.8281279,
      "drain_area_sqmi": 46.3,
      "alt_ft": 545.0,
      "site_type_cd": "ST"
    },
    {
      "id": "01095434",
      "site_no": "01095434",
      "name": "GATES BROOK NEAR WEST BOYLSTON, MA",
      "state": "25",
      "state_cd": "25",
      "huc_cd": "01070004",
      "lat": 42.36453675,
      "lon": -71.775349,
      "drain_area_sqmi": 3.13,
      "alt_ft": 395.0,
      "site_type_cd": "ST"
    },
    {
      "id": "01095503",
      "site_no": "01095503",
      "name": "NASHUA RIVER, WATER STREET BRIDGE, AT CLINTON, MA",
      "state": "25",
      "state_cd": "25",
      "huc_cd": "01070004",
      "lat": 42.41944444,
      "lon": -71.6661111,
      "drain_area_sqmi": 110.0,
      "alt_ft": 250.0,
      "site_type_cd": "ST"
    },
    {
      "id": "01096000",
      "site_no": "01096000",
      "name": "SQUANNACOOK RIVER NEAR WEST GROTON, MA",
      "state": "25",
      "state_cd": "25",
      "huc_cd": "01070004",
      "lat": 42.63425619,
      "lon": -71.6578479,
      "drain_area_sqmi": 65.9,
      "alt_ft": 243.5,
      "site_type_cd": "ST"
    },
    {
      "id": "01096500",
      "site_no": "01096500",
      "name": "NASHUA RIVER AT EAST PEPPERELL, MA",
      "state": "25",
      "state_cd": "25",
      "huc_cd": "01070004",
      "lat": 42.66758945,
      "lon": -71.57506809,
      "drain_area_sqmi": 435.0,
      "alt_ft": 168.28,
      "site_type_cd": "ST"
    },
    {
      "id": "010965852",
      "site_no": "010965852",
      "name": "BEAVER BROOK AT NORTH PELHAM, NH",
      "state": "33",
      "state_cd": "33",
      "huc_cd": "01070002",
      "lat": 42.78286636,
      "lon": -71.35367448,
      "drain_area_sqmi": 47.8,
      "alt_ft": 148.55,
      "site_type_cd": "ST"
    },
    {
      "id": "01097000",
      "site_no": "01097000",
      "name": "ASSABET RIVER AT MAYNARD, MA",
      "state": "25",
      "state_cd": "25",
      "huc_cd": "01070005",
      "lat": 42.432038,
      "lon": -71.4497848,
      "drain_area_sqmi": 116.0,
      "alt_ft": 146.0,
      "site_type_cd": "ST"
    },
    {
      "id": "01097300",
      "site_no": "01097300",
      "name": "NASHOBA BROOK NEAR ACTON, MA",
      "state": "25",
      "state_cd": "25",
      "huc_cd": "01070005",
      "lat": 42.51259289,
      "lon": -71.40422829,
      "drain_area_sqmi": 12.8,
      "alt_ft": 154.19,
      "site_type_cd": "ST"
    },
    {
      "id": "01097480",
      "site_no": "01097480",
      "name": "SUDBURY RIVER AT ASHLAND, MA",
      "state": "25",
      "state_cd": "25",
      "huc_cd": "010700050101",
      "lat": 42.25997508,
      "lon": -71.4564197,
      "drain_area_sqmi": 35.1,
      "alt_ft": 185.0,
      "site_type_cd": "ST"
    },
    {
      "id": "01098500",
      "site_no": "01098500",
      "name": "COCHITUATE BK BL LAKE COCHITUATE AT FRAMINGHAM, MA",
      "state": "25",
      "state_cd": "25",
      "huc_cd": "010700050103",
      "lat": 42.31514167,
      "lon": -71.38380833,
      "drain_area_sqmi": 17.5,
      "alt_ft": 130.0,
      "site_type_cd": "ST"
    },
    {
      "id": "01098530",
      "site_no": "01098530",
      "name": "SUDBURY RIVER AT SAXONVILLE, MA",
      "state": "25",
      "state_cd": "25",
      "huc_cd": "01070005",
      "lat": 42.3253732,
      "lon": -71.3975605,
      "drain_area_sqmi": 106.0,
      "alt_ft": 109.78,
      "site_type_cd": "ST"
    },
    {
      "id": "01099500",
      "site_no": "01099500",
      "name": "CONCORD R BELOW R MEADOW BROOK, AT LOWELL, MA",
      "state": "25",
      "state_cd": "25",
      "huc_cd": "01070005",
      "lat": 42.6367581,
      "lon": -71.3020047,
      "drain_area_sqmi": 400.0,
      "alt_ft": 66.6,
      "site_type_cd": "ST"
    },
    {
      "id": "01100000",
      "site_no": "01100000",
      "name": "MERRIMACK RIVER BL CONCORD RIVER AT LOWELL, MA",
      "state": "25",
      "state_cd": "25",
      "huc_cd": "01070006",
      "lat": 42.64592464,
      "lon": -71.2983937,
      "drain_area_sqmi": 4635.0,
      "alt_ft": 4.37,
      "site_type_cd": "ST"
    },
    {
      "id": "01100505",
      "site_no": "01100505",
      "name": "SPICKET RIVER AT NORTH SALEM, NH",
      "state": "33",
      "state_cd": "33",
      "huc_cd": "01070002",
      "lat": 42.8492547,
      "lon": -71.2150607,
      "drain_area_sqmi": 16.5,
      "alt_ft": 185.82,
      "site_type_cd": "ST"
    },
    {
      "id": "01100561",
      "site_no": "01100561",
      "name": "SPICKET RIVER NEAR METHUEN, MA",
      "state": "33",
      "state_cd": "33",
      "huc_cd": "01070002",
      "lat": 42.7431456,
      "lon": -71.208393,
      "drain_area_sqmi": 62.1,
      "alt_ft": 100.14,
      "site_type_cd": "ST"
    },
    {
      "id": "01100600",
      "site_no": "01100600",
      "name": "SHAWSHEEN RIVER NEAR WILMINGTON, MA",
      "state": "25",
      "state_cd": "25",
      "huc_cd": "01070002",
      "lat": 42.5681488,
      "lon": -71.2147792,
      "drain_area_sqmi": 36.5,
      "alt_ft": 79.61,
      "site_type_cd": "ST"
    },
    {
      "id": "01100627",
      "site_no": "01100627",
      "name": "SHAWSHEEN RIVER AT BALMORAL STREET AT ANDOVER, MA",
      "state": "25",
      "state_cd": "25",
      "huc_cd": "01070006",
      "lat": 42.6714806,
      "lon": -71.1492239,
      "drain_area_sqmi": 72.8,
      "alt_ft": 34.2,
      "site_type_cd": "ST"
    },
    {
      "id": "01101000",
      "site_no": "01101000",
      "name": "PARKER RIVER AT BYFIELD, MA",
      "state": "25",
      "state_cd": "25",
      "huc_cd": "01090001",
      "lat": 42.75286948,
      "lon": -70.9456096,
      "drain_area_sqmi": 21.3,
      "alt_ft": 22.68,
      "site_type_cd": "ST"
    },
    {
      "id": "01101500",
      "site_no": "01101500",
      "name": "IPSWICH RIVER AT SOUTH MIDDLETON, MA",
      "state": "25",
      "state_cd": "25",
      "huc_cd": "01090001",
      "lat": 42.56953869,
      "lon": -71.0269974,
      "drain_area_sqmi": 44.5,
      "alt_ft": 44.16,
      "site_type_cd": "ST"
    },
    {
      "id": "01102000",
      "site_no": "01102000",
      "name": "IPSWICH RIVER NEAR IPSWICH, MA",
      "state": "25",
      "state_cd": "25",
      "huc_cd": "01090001",
      "lat": 42.6598157,
      "lon": -70.8936622,
      "drain_area_sqmi": 125.0,
      "alt_ft": 19.83,
      "site_type_cd": "ST"
    },
    {
      "id": "01102345",
      "site_no": "01102345",
      "name": "SAUGUS RIVER AT SAUGUS IRONWORKS AT SAUGUS, MA",
      "state": "25",
      "state_cd": "25",
      "huc_cd": "01090001",
      "lat": 42.46941579,
      "lon": -71.0069588,
      "drain_area_sqmi": 20.8,
      "alt_ft": 14.2,
      "site_type_cd": "ST-TS"
    },
    {
      "id": "01102500",
      "site_no": "01102500",
      "name": "ABERJONA RIVER AT WINCHESTER, MA",
      "state": "25",
      "state_cd": "25",
      "huc_cd": "01090001",
      "lat": 42.4474568,
      "lon": -71.1380816,
      "drain_area_sqmi": 24.5,
      "alt_ft": -0.8,
      "site_type_cd": "ST"
    },
    {
      "id": "01103025",
      "site_no": "01103025",
      "name": "ALEWIFE BROOK NEAR ARLINGTON, MA",
      "state": "25",
      "state_cd": "25",
      "huc_cd": "01090001",
      "lat": 42.40691687,
      "lon": -71.1339079,
      "drain_area_sqmi": 8.36,
      "alt_ft": 0.0,
      "site_type_cd": "ST-TS"
    },
    {
      "id": "01103280",
      "site_no": "01103280",
      "name": "CHARLES RIVER AT MEDWAY, MA",
      "state": "25",
      "state_cd": "25",
      "huc_cd": "01090001",
      "lat": 42.1398197,
      "lon": -71.3895032,
      "drain_area_sqmi": 65.7,
      "alt_ft": 174.23,
      "site_type_cd": "ST"
    },
    {
      "id": "01103455",
      "site_no": "01103455",
      "name": "TROUT BROOK AT DOVER, MA",
      "state": "25",
      "state_cd": "25",
      "huc_cd": "01090001",
      "lat": 42.25398645,
      "lon": -71.29339017,
      "drain_area_sqmi": 3.72,
      "alt_ft": 104.23,
      "site_type_cd": "ST"
    },
    {
      "id": "01103500",
      "site_no": "01103500",
      "name": "CHARLES RIVER AT DOVER, MA",
      "state": "25",
      "state_cd": "25",
      "huc_cd": "01090001",
      "lat": 42.256209,
      "lon": -71.2600558,
      "drain_area_sqmi": 183.0,
      "alt_ft": 88.98,
      "site_type_cd": "ST"
    },
    {
      "id": "01104000",
      "site_no": "01104000",
      "name": "MOTHER BROOK AT DEDHAM, MA",
      "state": "25",
      "state_cd": "25",
      "huc_cd": "01090001",
      "lat": 42.2550985,
      "lon": -71.1642196,
      "drain_area_sqmi": null,
      "alt_ft": -0.76,
      "site_type_cd": "ST"
    },
    {
      "id": "01104200",
      "site_no": "01104200",
      "name": "CHARLES RIVER AT WELLESLEY, MA",
      "state": "25",
      "state_cd": "25",
      "huc_cd": "01090001",
      "lat": 42.3164861,
      "lon": -71.227833,
      "drain_area_sqmi": 211.0,
      "alt_ft": 67.12,
      "site_type_cd": "ST"
    },
    {
      "id": "01104370",
      "site_no": "01104370",
      "name": "STONY BROOK AT VILES STREET, NEAR WESTON, MA",
      "state": "25",
      "state_cd": "25",
      "huc_cd": "01090001",
      "lat": 42.38555556,
      "lon": -71.2894444,
      "drain_area_sqmi": 10.2,
      "alt_ft": 129.21,
      "site_type_cd": "ST"
    },
    {
      "id": "01104405",
      "site_no": "01104405",
      "name": "HOBBS BROOK AT MILL ST NR LINCOLN, MA",
      "state": "25",
      "state_cd": "25",
      "huc_cd": "010900010702",
      "lat": 42.43636172,
      "lon": -71.26946767,
      "drain_area_sqmi": 2.16,
      "alt_ft": 175.0,
      "site_type_cd": "ST"
    },
    {
      "id": "01104410",
      "site_no": "01104410",
      "name": "CAMBRIDGE RES., UNNAMED TRIB 1, NR LEXINGTON, MA",
      "state": "25",
      "state_cd": "25",
      "huc_cd": "01090001",
      "lat": 42.43648406,
      "lon": -71.2642235,
      "drain_area_sqmi": 0.35,
      "alt_ft": 175.0,
      "site_type_cd": "ST"
    },
    {
      "id": "01104415",
      "site_no": "01104415",
      "name": "CAMBRIDGE RES., UNNAMED TRIB 2, NR LEXINGTON, MA",
      "state": "25",
      "state_cd": "25",
      "huc_cd": "01090001",
      "lat": 42.43592855,
      "lon": -71.2600567,
      "drain_area_sqmi": 0.41,
      "alt_ft": 174.2,
      "site_type_cd": "ST"
    },
    {
      "id": "01104420",
      "site_no": "01104420",
      "name": "CAMBRIDGE RES., UNNAMED TRIB 3, NR LEXINGTON, MA",
      "state": "25",
      "state_cd": "25",
      "huc_cd": "01090001",
      "lat": 42.4198177,
      "lon": -71.2575565,
      "drain_area_sqmi": 0.73,
      "alt_ft": 179.2,
      "site_type_cd": "ST"
    },
    {
      "id": "01104430",
      "site_no": "01104430",
      "name": "HOBBS BK BELOW CAMBRIDGE RES NR KENDALL GREEN, MA",
      "state": "25",
      "state_cd": "25",
      "huc_cd": "01090001",
      "lat": 42.3981512,
      "lon": -71.2733903,
      "drain_area_sqmi": 6.86,
      "alt_ft": 149.2,
      "site_type_cd": "ST"
    },
    {
      "id": "01104453",
      "site_no": "01104453",
      "name": "STONY BROOK UNNAMED TRIB 2 NR WESTON STATION",
      "state": "25",
      "state_cd": "25",
      "huc_cd": "01090001",
      "lat": 42.37138889,
      "lon": -71.27527778,
      "drain_area_sqmi": 2.23,
      "alt_ft": null,
      "site_type_cd": "ST"
    },
    {
      "id": "01104455",
      "site_no": "01104455",
      "name": "STONY BROOK, UNNAMED TRIBUTARY 1, NEAR WALTHAM, MA",
      "state": "25",
      "state_cd": "25",
      "huc_cd": "01090001",
      "lat": 42.37259606,
      "lon": -71.27033448,
      "drain_area_sqmi": 0.48,
      "alt_ft": 84.2,
      "site_type_cd": "ST"
    },
    {
      "id": "01104460",
      "site_no": "01104460",
      "name": "STONY BROOK AT RT 20 AT WALTHAM, MA",
      "state": "25",
      "state_cd": "25",
      "huc_cd": "01090001",
      "lat": 42.368985,
      "lon": -71.2706123,
      "drain_area_sqmi": 22.0,
      "alt_ft": 89.2,
      "site_type_cd": "ST"
    },
    {
      "id": "01104475",
      "site_no": "01104475",
      "name": "STONY BROOK RES., UNNAMED TRIB 1, NEAR WESTON, MA",
      "state": "25",
      "state_cd": "25",
      "huc_cd": "01090001",
      "lat": 42.3545408,
      "lon": -71.2681121,
      "drain_area_sqmi": 0.85,
      "alt_ft": 99.2,
      "site_type_cd": "ST"
    },
    {
      "id": "01104480",
      "site_no": "01104480",
      "name": "STONY BROOK RESERVOIR AT DAM NEAR WALTHAM, MA",
      "state": "25",
      "state_cd": "25",
      "huc_cd": "01090001",
      "lat": 42.3556519,
      "lon": -71.2650565,
      "drain_area_sqmi": 23.7,
      "alt_ft": 42.14,
      "site_type_cd": "ST"
    },
    {
      "id": "01104500",
      "site_no": "01104500",
      "name": "CHARLES RIVER AT WALTHAM, MA",
      "state": "25",
      "state_cd": "25",
      "huc_cd": "01090001",
      "lat": 42.37231857,
      "lon": -71.2336668,
      "drain_area_sqmi": 251.0,
      "alt_ft": 19.21,
      "site_type_cd": "ST"
    },
    {
      "id": "01105000",
      "site_no": "01105000",
      "name": "NEPONSET RIVER AT NORWOOD, MA",
      "state": "25",
      "state_cd": "25",
      "huc_cd": "01090001",
      "lat": 42.1775987,
      "lon": -71.2008863,
      "drain_area_sqmi": 34.7,
      "alt_ft": 43.25,
      "site_type_cd": "ST"
    },
    {
      "id": "01105500",
      "site_no": "01105500",
      "name": "EAST BRANCH NEPONSET RIVER AT CANTON, MA",
      "state": "25",
      "state_cd": "25",
      "huc_cd": "01090001",
      "lat": 42.15454356,
      "lon": -71.1458842,
      "drain_area_sqmi": 27.2,
      "alt_ft": 79.4,
      "site_type_cd": "ST"
    },
    {
      "id": "01105554",
      "site_no": "01105554",
      "name": "NEPONSET RIVER AT GREENLODGE ST NEAR CANTON, MA",
      "state": "25",
      "state_cd": "25",
      "huc_cd": "01090001",
      "lat": 42.2092655,
      "lon": -71.1458851,
      "drain_area_sqmi": 83.7,
      "alt_ft": 39.21,
      "site_type_cd": "ST"
    },
    {
      "id": "01105583",
      "site_no": "01105583",
      "name": "MONATIQUOT RIVER AT EAST BRAINTREE, MA",
      "state": "25",
      "state_cd": "25",
      "huc_cd": "01090001",
      "lat": 42.2208065,
      "lon": -70.9780711,
      "drain_area_sqmi": 28.7,
      "alt_ft": 4.2,
      "site_type_cd": "ST-TS"
    },
    {
      "id": "01105585",
      "site_no": "01105585",
      "name": "TOWN BROOK AT QUINCY, MA",
      "state": "25",
      "state_cd": "25",
      "huc_cd": "01090001",
      "lat": 42.2477508,
      "lon": -70.99723817,
      "drain_area_sqmi": 4.11,
      "alt_ft": 4.19,
      "site_type_cd": "ST-TS"
    },
    {
      "id": "01105600",
      "site_no": "01105600",
      "name": "OLD SWAMP RIVER NEAR SOUTH WEYMOUTH, MA",
      "state": "25",
      "state_cd": "25",
      "huc_cd": "01090001",
      "lat": 42.1903779,
      "lon": -70.9447679,
      "drain_area_sqmi": 4.5,
      "alt_ft": 69.21,
      "site_type_cd": "ST"
    },
    {
      "id": "01105606",
      "site_no": "01105606",
      "name": "WHITMANS POND, WHITMANS POND DAM AT E. WEYMOUTH,MA",
      "state": "25",
      "state_cd": "25",
      "huc_cd": "01090001",
      "lat": 42.2108333,
      "lon": -70.9294444,
      "drain_area_sqmi": 12.4,
      "alt_ft": -6.67,
      "site_type_cd": "ST"
    },
    {
      "id": "01105608",
      "site_no": "01105608",
      "name": "WHITMANS POND FISH LADDER AT EAST WEYMOUTH, MA",
      "state": "25",
      "state_cd": "25",
      "huc_cd": "01090001",
      "lat": 42.21305556,
      "lon": -70.92638889,
      "drain_area_sqmi": 12.5,
      "alt_ft": -6.67,
      "site_type_cd": "ST"
    },
    {
      "id": "01105638",
      "site_no": "01105638",
      "name": "WEIR RIVER AT LEAVITT STREET AT HINGHAM, MA",
      "state": "25",
      "state_cd": "25",
      "huc_cd": "01090001",
      "lat": 42.2348226,
      "lon": -70.8719892,
      "drain_area_sqmi": 14.1,
      "alt_ft": 14.19,
      "site_type_cd": "ST"
    },
    {
      "id": "01105730",
      "site_no": "01105730",
      "name": "INDIAN HEAD RIVER AT HANOVER, MA",
      "state": "25",
      "state_cd": "25",
      "huc_cd": "01090002",
      "lat": 42.100529,
      "lon": -70.8225115,
      "drain_area_sqmi": 30.3,
      "alt_ft": 2.35,
      "site_type_cd": "ST-TS"
    },
    {
      "id": "01105870",
      "site_no": "01105870",
      "name": "JONES RIVER AT KINGSTON, MA",
      "state": "25",
      "state_cd": "25",
      "huc_cd": "01090002",
      "lat": 41.99080729,
      "lon": -70.7336207,
      "drain_area_sqmi": 19.8,
      "alt_ft": 3.94,
      "site_type_cd": "ST-TS"
    },
    {
      "id": "01105876",
      "site_no": "01105876",
      "name": "EEL RIVER AT RT 3A NEAR PLYMOUTH, MA",
      "state": "25",
      "state_cd": "25",
      "huc_cd": "01090002",
      "lat": 41.9416405,
      "lon": -70.6225064,
      "drain_area_sqmi": 14.7,
      "alt_ft": 0.0,
      "site_type_cd": "ST-TS"
    },
    {
      "id": "0110587880",
      "site_no": "0110587880",
      "name": "MILL CREEK AT SANDWICH, MA",
      "state": "25",
      "state_cd": "25",
      "huc_cd": "010900020201",
      "lat": 41.75747491,
      "lon": -70.50028183,
      "drain_area_sqmi": null,
      "alt_ft": null,
      "site_type_cd": "ST"
    },
    {
      "id": "01105880",
      "site_no": "01105880",
      "name": "HERRING RIVER AT NORTH HARWICH, MA",
      "state": "25",
      "state_cd": "25",
      "huc_cd": "01090002",
      "lat": 41.70011074,
      "lon": -70.1069625,
      "drain_area_sqmi": 9.4,
      "alt_ft": 9.12,
      "site_type_cd": "ST"
    },
    {
      "id": "0110588332",
      "site_no": "0110588332",
      "name": "MARSTONS MILLS RV, DS OUT. OF BOG, MARS. MILLS, MA",
      "state": "25",
      "state_cd": "25",
      "huc_cd": "01090002",
      "lat": 41.66710556,
      "lon": -70.42362778,
      "drain_area_sqmi": null,
      "alt_ft": 82.0,
      "site_type_cd": "ST"
    },
    {
      "id": "011058837",
      "site_no": "011058837",
      "name": "QUASHNET RIVER AT WAQUOIT VILLAGE, MA",
      "state": "25",
      "state_cd": "25",
      "huc_cd": "01090002",
      "lat": 41.5921987,
      "lon": -70.50778348,
      "drain_area_sqmi": 2.58,
      "alt_ft": 0.0,
      "site_type_cd": "ST-TS"
    },
    {
      "id": "01105895",
      "site_no": "01105895",
      "name": "WEWEANTIC RIVER AT SOUTH WAREHAM, MA",
      "state": "25",
      "state_cd": "25",
      "huc_cd": "010900020302",
      "lat": 41.76997601,
      "lon": -70.75445658,
      "drain_area_sqmi": 56.1,
      "alt_ft": null,
      "site_type_cd": "ST"
    },
    {
      "id": "01105917",
      "site_no": "01105917",
      "name": "MATTAPOISETT RIVER NEAR MATTAPOISETT, MA",
      "state": "25",
      "state_cd": "25",
      "huc_cd": "01090002",
      "lat": 41.66260446,
      "lon": -70.8383696,
      "drain_area_sqmi": 24.0,
      "alt_ft": 9.17,
      "site_type_cd": "ST"
    },
    {
      "id": "01105933",
      "site_no": "01105933",
      "name": "PASKAMANSET RIVER NEAR SOUTH DARTMOUTH, MA",
      "state": "25",
      "state_cd": "25",
      "huc_cd": "01090002",
      "lat": 41.58538185,
      "lon": -70.9903171,
      "drain_area_sqmi": 26.2,
      "alt_ft": 9.2,
      "site_type_cd": "ST"
    },
    {
      "id": "01106000",
      "site_no": "01106000",
      "name": "ADAMSVILLE BROOK AT ADAMSVILLE, RI",
      "state": "44",
      "state_cd": "44",
      "huc_cd": "010900020502",
      "lat": 41.55831305,
      "lon": -71.12919264,
      "drain_area_sqmi": 8.01,
      "alt_ft": 15.0,
      "site_type_cd": "ST"
    },
    {
      "id": "01108000",
      "site_no": "01108000",
      "name": "TAUNTON RIVER NEAR BRIDGEWATER, MA",
      "state": "25",
      "state_cd": "25",
      "huc_cd": "01090004",
      "lat": 41.9339903,
      "lon": -70.9564307,
      "drain_area_sqmi": 261.0,
      "alt_ft": 8.79,
      "site_type_cd": "ST"
    },
    {
      "id": "01108410",
      "site_no": "01108410",
      "name": "MILL RIVER AT SPRING STREET AT TAUNTON, MA",
      "state": "25",
      "state_cd": "25",
      "huc_cd": "01090004",
      "lat": 41.89969865,
      "lon": -71.0894663,
      "drain_area_sqmi": 43.5,
      "alt_ft": 14.19,
      "site_type_cd": "ST-TS"
    },
    {
      "id": "01109000",
      "site_no": "01109000",
      "name": "WADING RIVER NEAR NORTON, MA",
      "state": "25",
      "state_cd": "25",
      "huc_cd": "01090004",
      "lat": 41.94760015,
      "lon": -71.1767155,
      "drain_area_sqmi": 43.3,
      "alt_ft": 54.35,
      "site_type_cd": "ST"
    },
    {
      "id": "01109060",
      "site_no": "01109060",
      "name": "THREEMILE RIVER AT NORTH DIGHTON, MA",
      "state": "25",
      "state_cd": "25",
      "huc_cd": "01090004",
      "lat": 41.8662122,
      "lon": -71.12282369,
      "drain_area_sqmi": 84.3,
      "alt_ft": 10.57,
      "site_type_cd": "ST"
    },
    {
      "id": "01109070",
      "site_no": "01109070",
      "name": "SEGREGANSET RIVER NEAR DIGHTON, MA",
      "state": "25",
      "state_cd": "25",
      "huc_cd": "01090004",
      "lat": 41.840379,
      "lon": -71.142824,
      "drain_area_sqmi": 10.6,
      "alt_ft": 29.18,
      "site_type_cd": "ST"
    },
    {
      "id": "01109403",
      "site_no": "01109403",
      "name": "TEN MILE R., PAWTUCKET AVE. AT E. PROVIDENCE, RI",
      "state": "44",
      "state_cd": "44",
      "huc_cd": "01090004",
      "lat": 41.83093377,
      "lon": -71.3503315,
      "drain_area_sqmi": 53.1,
      "alt_ft": 8.0,
      "site_type_cd": "ST"
    },
    {
      "id": "01109730",
      "site_no": "01109730",
      "name": "BLACKSTONE RIVER, W. MAIN ST., AT MILLBURY, MA",
      "state": "25",
      "state_cd": "25",
      "huc_cd": "01090003",
      "lat": 42.1889835,
      "lon": -71.7650702,
      "drain_area_sqmi": 71.4,
      "alt_ft": 379.35,
      "site_type_cd": "ST"
    },
    {
      "id": "01110000",
      "site_no": "01110000",
      "name": "QUINSIGAMOND RIVER AT NORTH GRAFTON, MA",
      "state": "25",
      "state_cd": "25",
      "huc_cd": "01090003",
      "lat": 42.230372,
      "lon": -71.7109023,
      "drain_area_sqmi": 25.6,
      "alt_ft": 334.32,
      "site_type_cd": "ST"
    },
    {
      "id": "01110500",
      "site_no": "01110500",
      "name": "BLACKSTONE RIVER AT NORTHBRIDGE, MA",
      "state": "25",
      "state_cd": "25",
      "huc_cd": "01090003",
      "lat": 42.15370688,
      "lon": -71.65201138,
      "drain_area_sqmi": 141.0,
      "alt_ft": 254.3,
      "site_type_cd": "ST"
    },
    {
      "id": "01111212",
      "site_no": "01111212",
      "name": "BLACKSTONE RIVER, RT 122 BRIDGE NEAR UXBRIDGE, MA",
      "state": "25",
      "state_cd": "25",
      "huc_cd": "01090003",
      "lat": 42.05481959,
      "lon": -71.6164542,
      "drain_area_sqmi": 244.0,
      "alt_ft": 198.12,
      "site_type_cd": "ST"
    },
    {
      "id": "01111300",
      "site_no": "01111300",
      "name": "NIPMUC RIVER NEAR HARRISVILLE, RI",
      "state": "44",
      "state_cd": "44",
      "huc_cd": "01090003",
      "lat": 41.9812093,
      "lon": -71.68590049,
      "drain_area_sqmi": 16.0,
      "alt_ft": 333.5,
      "site_type_cd": "ST"
    },
    {
      "id": "01111500",
      "site_no": "01111500",
      "name": "BRANCH RIVER AT FORESTDALE, RI",
      "state": "44",
      "state_cd": "44",
      "huc_cd": "01090003",
      "lat": 41.99648716,
      "lon": -71.56200758,
      "drain_area_sqmi": 91.2,
      "alt_ft": 180.6,
      "site_type_cd": "ST"
    },
    {
      "id": "01112500",
      "site_no": "01112500",
      "name": "BLACKSTONE RIVER AT WOONSOCKET, RI",
      "state": "44",
      "state_cd": "44",
      "huc_cd": "01090003",
      "lat": 42.0064871,
      "lon": -71.5025613,
      "drain_area_sqmi": 416.0,
      "alt_ft": 106.6,
      "site_type_cd": "ST"
    },
    {
      "id": "01113895",
      "site_no": "01113895",
      "name": "BLACKSTONE R AT ROOSEVELT ST AT PAWTUCKET RI",
      "state": "44",
      "state_cd": "44",
      "huc_cd": "01090003",
      "lat": 41.8884331,
      "lon": -71.38144467,
      "drain_area_sqmi": 474.0,
      "alt_ft": 33.8,
      "site_type_cd": "ST"
    },
    {
      "id": "01114000",
      "site_no": "01114000",
      "name": "MOSHASSUCK RIVER AT PROVIDENCE, RI",
      "state": "44",
      "state_cd": "44",
      "huc_cd": "01090004",
      "lat": 41.833989,
      "lon": -71.41061208,
      "drain_area_sqmi": 23.1,
      "alt_ft": 7.1,
      "site_type_cd": "ST"
    },
    {
      "id": "01114500",
      "site_no": "01114500",
      "name": "WOONASQUATUCKET RIVER AT CENTERDALE, RI",
      "state": "44",
      "state_cd": "44",
      "huc_cd": "01090004",
      "lat": 41.8589884,
      "lon": -71.4872823,
      "drain_area_sqmi": 38.3,
      "alt_ft": 93.4,
      "site_type_cd": "ST"
    },
    {
      "id": "01115098",
      "site_no": "01115098",
      "name": "PEEPTOAD BROOK AT ELMDALE RD NR NORTH SCITUATE, RI",
      "state": "44",
      "state_cd": "44",
      "huc_cd": "01090004",
      "lat": 41.8525992,
      "lon": -71.6061754,
      "drain_area_sqmi": 4.96,
      "alt_ft": 314.1,
      "site_type_cd": "ST"
    },
    {
      "id": "01115110",
      "site_no": "01115110",
      "name": "HUNTINGHOUSE BK AT ELMDALE RD AT N SCITUATE, RI",
      "state": "44",
      "state_cd": "44",
      "huc_cd": "01090004",
      "lat": 41.8456548,
      "lon": -71.6095088,
      "drain_area_sqmi": 6.23,
      "alt_ft": 291.2,
      "site_type_cd": "ST"
    },
    {
      "id": "01115114",
      "site_no": "01115114",
      "name": "RUSH BROOK NEAR ELMDALE RD NEAR NORTH SCITUATE, RI",
      "state": "44",
      "state_cd": "44",
      "huc_cd": "01090004",
      "lat": 41.83759929,
      "lon": -71.6120089,
      "drain_area_sqmi": 4.7,
      "alt_ft": 292.4,
      "site_type_cd": "ST"
    },
    {
      "id": "01115170",
      "site_no": "01115170",
      "name": "MOSWANSICUT STREAM NR NORTH SCITUATE, RI",
      "state": "44",
      "state_cd": "44",
      "huc_cd": "01090004",
      "lat": 41.84093269,
      "lon": -71.584508,
      "drain_area_sqmi": 3.25,
      "alt_ft": 293.7,
      "site_type_cd": "ST"
    },
    {
      "id": "01115183",
      "site_no": "01115183",
      "name": "QUONOPAUG BK AT RT 116 NR NORTH SCITUATE, RI",
      "state": "44",
      "state_cd": "44",
      "huc_cd": "01090004",
      "lat": 41.79759966,
      "lon": -71.5847857,
      "drain_area_sqmi": 1.96,
      "alt_ft": 311.7,
      "site_type_cd": "ST"
    },
    {
      "id": "01115185",
      "site_no": "01115185",
      "name": "WINSOR BROOK AT WINSOR RD NEAR SOUTH FOSTER, RI",
      "state": "44",
      "state_cd": "44",
      "huc_cd": "01090004",
      "lat": 41.83621005,
      "lon": -71.72256829,
      "drain_area_sqmi": 4.32,
      "alt_ft": 394.0,
      "site_type_cd": "ST"
    },
    {
      "id": "01115187",
      "site_no": "01115187",
      "name": "PONAGANSET RIVER AT SOUTH FOSTER, RI",
      "state": "44",
      "state_cd": "44",
      "huc_cd": "01090004",
      "lat": 41.8187102,
      "lon": -71.7050677,
      "drain_area_sqmi": 14.4,
      "alt_ft": 348.2,
      "site_type_cd": "ST"
    },
    {
      "id": "01115190",
      "site_no": "01115190",
      "name": "DOLLY COLE BK AT OLD DANIELSON PK AT S FOSTER, RI",
      "state": "44",
      "state_cd": "44",
      "huc_cd": "01090004",
      "lat": 41.8223213,
      "lon": -71.70034528,
      "drain_area_sqmi": 4.9,
      "alt_ft": 350.4,
      "site_type_cd": "ST"
    },
    {
      "id": "01115265",
      "site_no": "01115265",
      "name": "HEMLOCK BROOK AT KING ROAD NR FOSTER, RI",
      "state": "44",
      "state_cd": "44",
      "huc_cd": "01090004",
      "lat": 41.7906548,
      "lon": -71.6986785,
      "drain_area_sqmi": 8.72,
      "alt_ft": 402.6,
      "site_type_cd": "ST"
    },
    {
      "id": "01115276",
      "site_no": "01115276",
      "name": "WESTCONNAUG STREAM AT PLAINFIELD PIKE, RI",
      "state": "44",
      "state_cd": "44",
      "huc_cd": "01090004",
      "lat": 41.7853772,
      "lon": -71.6672885,
      "drain_area_sqmi": 5.18,
      "alt_ft": 327.4,
      "site_type_cd": "ST"
    },
    {
      "id": "01115278",
      "site_no": "01115278",
      "name": "SWAMP BROOK AT PONAGANSETT ROAD NR CLAYVILLE, RI",
      "state": "44",
      "state_cd": "44",
      "huc_cd": "010900040606",
      "lat": 41.7968,
      "lon": -71.669431,
      "drain_area_sqmi": 1.68,
      "alt_ft": 305.7,
      "site_type_cd": "ST"
    },
    {
      "id": "01115280",
      "site_no": "01115280",
      "name": "CORK BK AT ROCKLAND SCITUATE RD NR CLAYVILLE, RI",
      "state": "44",
      "state_cd": "44",
      "huc_cd": "01090004",
      "lat": 41.80398827,
      "lon": -71.6497879,
      "drain_area_sqmi": 1.79,
      "alt_ft": 415.9,
      "site_type_cd": "ST"
    },
    {
      "id": "01115297",
      "site_no": "01115297",
      "name": "WILBUR HOLLOW BK AT OLD PLAINFIELD PK NR CLAYVILLE",
      "state": "44",
      "state_cd": "44",
      "huc_cd": "01090004",
      "lat": 41.7648219,
      "lon": -71.6356207,
      "drain_area_sqmi": 4.32,
      "alt_ft": 323.8,
      "site_type_cd": "ST"
    },
    {
      "id": "01115500",
      "site_no": "01115500",
      "name": "NORTH BRANCH PAWTUXET RIVER AT FISKEVILLE, RI",
      "state": "44",
      "state_cd": "44",
      "huc_cd": "01090004",
      "lat": 41.73287798,
      "lon": -71.5497842,
      "drain_area_sqmi": 102.0,
      "alt_ft": 147.5,
      "site_type_cd": "ST"
    },
    {
      "id": "01115630",
      "site_no": "01115630",
      "name": "NOOSENECK RIVER AT NOOSENECK, RI",
      "state": "44",
      "state_cd": "44",
      "huc_cd": "01090004",
      "lat": 41.6267667,
      "lon": -71.6325646,
      "drain_area_sqmi": 8.23,
      "alt_ft": 260.2,
      "site_type_cd": "ST"
    },
    {
      "id": "01115770",
      "site_no": "01115770",
      "name": "CARR RIVER NEAR NOOSENECK, RI",
      "state": "44",
      "state_cd": "44",
      "huc_cd": "01090004",
      "lat": 41.6431557,
      "lon": -71.6078415,
      "drain_area_sqmi": 7.33,
      "alt_ft": 250.0,
      "site_type_cd": "ST"
    },
    {
      "id": "01116000",
      "site_no": "01116000",
      "name": "SOUTH BRANCH PAWTUXET RIVER AT WASHINGTON, RI",
      "state": "44",
      "state_cd": "44",
      "huc_cd": "01090004",
      "lat": 41.69010026,
      "lon": -71.5658958,
      "drain_area_sqmi": 62.8,
      "alt_ft": 216.9,
      "site_type_cd": "ST"
    },
    {
      "id": "01116500",
      "site_no": "01116500",
      "name": "PAWTUXET RIVER AT CRANSTON, RI",
      "state": "44",
      "state_cd": "44",
      "huc_cd": "01090004",
      "lat": 41.75093399,
      "lon": -71.4450575,
      "drain_area_sqmi": 200.0,
      "alt_ft": 7.2,
      "site_type_cd": "ST"
    },
    {
      "id": "01116905",
      "site_no": "01116905",
      "name": "HUNT R 250 FT DS FRY BRK AT FRENCHTOWN, RI",
      "state": "44",
      "state_cd": "44",
      "huc_cd": "01090004",
      "lat": 41.63,
      "lon": -71.47888889,
      "drain_area_sqmi": 16.0,
      "alt_ft": 26.7,
      "site_type_cd": "ST"
    },
    {
      "id": "01117000",
      "site_no": "01117000",
      "name": "HUNT RIVER NEAR EAST GREENWICH, RI",
      "state": "44",
      "state_cd": "44",
      "huc_cd": "01090004",
      "lat": 41.6412122,
      "lon": -71.4445016,
      "drain_area_sqmi": 22.9,
      "alt_ft": 4.51,
      "site_type_cd": "ST"
    },
    {
      "id": "01117100",
      "site_no": "01117100",
      "name": "ANNAQUATUCKET RIVER AT BELLEVILLE, RI",
      "state": "44",
      "state_cd": "44",
      "huc_cd": "01090004",
      "lat": 41.5569257,
      "lon": -71.464759,
      "drain_area_sqmi": 6.44,
      "alt_ft": null,
      "site_type_cd": "ST"
    },
    {
      "id": "01117350",
      "site_no": "01117350",
      "name": "Chipuxet River at West Kingston, RI",
      "state": "44",
      "state_cd": "44",
      "huc_cd": "011000070201",
      "lat": 41.48220458,
      "lon": -71.5511513,
      "drain_area_sqmi": 9.59,
      "alt_ft": 88.6,
      "site_type_cd": "ST"
    },
    {
      "id": "01117370",
      "site_no": "01117370",
      "name": "QUEEN R AT LIBERTY RD AT LIBERTY RI",
      "state": "44",
      "state_cd": "44",
      "huc_cd": "01090005",
      "lat": 41.53898957,
      "lon": -71.568673,
      "drain_area_sqmi": 19.6,
      "alt_ft": 117.5,
      "site_type_cd": "ST"
    },
    {
      "id": "01117420",
      "site_no": "01117420",
      "name": "Usquepaug River Near Usquepaug, RI",
      "state": "44",
      "state_cd": "44",
      "huc_cd": "011000070202",
      "lat": 41.47664932,
      "lon": -71.60476418,
      "drain_area_sqmi": 36.1,
      "alt_ft": 90.12,
      "site_type_cd": "ST"
    },
    {
      "id": "01117430",
      "site_no": "01117430",
      "name": "Pawcatuck River at Kenyon, RI",
      "state": "44",
      "state_cd": "44",
      "huc_cd": "011000070204",
      "lat": 41.44609413,
      "lon": -71.62115384,
      "drain_area_sqmi": 72.7,
      "alt_ft": 84.83,
      "site_type_cd": "ST"
    },
    {
      "id": "01117468",
      "site_no": "01117468",
      "name": "BEAVER RIVER NEAR USQUEPAUG, RI",
      "state": "44",
      "state_cd": "44",
      "huc_cd": "01090005",
      "lat": 41.49260037,
      "lon": -71.6281194,
      "drain_area_sqmi": 8.87,
      "alt_ft": 106.78,
      "site_type_cd": "ST"
    },
    {
      "id": "01117500",
      "site_no": "01117500",
      "name": "Pawcatuck River at Wood River Junction, RI",
      "state": "44",
      "state_cd": "44",
      "huc_cd": "011000070205",
      "lat": 41.44498329,
      "lon": -71.68087799,
      "drain_area_sqmi": 100.0,
      "alt_ft": 42.9,
      "site_type_cd": "ST"
    },
    {
      "id": "01117800",
      "site_no": "01117800",
      "name": "WOOD RIVER NEAR ARCADIA, RI",
      "state": "44",
      "state_cd": "44",
      "huc_cd": "01090005",
      "lat": 41.5739884,
      "lon": -71.72062318,
      "drain_area_sqmi": 35.2,
      "alt_ft": 116.7,
      "site_type_cd": "ST"
    },
    {
      "id": "01118000",
      "site_no": "01118000",
      "name": "WOOD RIVER AT HOPE VALLEY, RI",
      "state": "44",
      "state_cd": "44",
      "huc_cd": "01090005",
      "lat": 41.49815516,
      "lon": -71.7164561,
      "drain_area_sqmi": 72.4,
      "alt_ft": 60.2,
      "site_type_cd": "ST"
    },
    {
      "id": "01118300",
      "site_no": "01118300",
      "name": "PENDLETON HILL BROOK NEAR CLARKS FALLS, CT",
      "state": "09",
      "state_cd": "09",
      "huc_cd": "011000070301",
      "lat": 41.47482222,
      "lon": -71.83423611,
      "drain_area_sqmi": 4.02,
      "alt_ft": 151.98,
      "site_type_cd": "ST"
    },
    {
      "id": "01118500",
      "site_no": "01118500",
      "name": "PAWCATUCK RIVER AT WESTERLY, RI",
      "state": "44",
      "state_cd": "44",
      "huc_cd": "011000070303",
      "lat": 41.385278,
      "lon": -71.833056,
      "drain_area_sqmi": 294.0,
      "alt_ft": 0.0,
      "site_type_cd": "ST-TS"
    },
    {
      "id": "01119382",
      "site_no": "01119382",
      "name": "WILLIMANTIC RIVER AT MERROW RD. NEAR MERROW, CT",
      "state": "09",
      "state_cd": "09",
      "huc_cd": "011000020108",
      "lat": 41.82401111,
      "lon": -72.31284722,
      "drain_area_sqmi": 96.3,
      "alt_ft": 319.0,
      "site_type_cd": "ST"
    },
    {
      "id": "01119384",
      "site_no": "01119384",
      "name": "WILLIMANTIC RIVER NEAR MANSFIELD DEPOT, CT",
      "state": "09",
      "state_cd": "09",
      "huc_cd": "011000020108",
      "lat": 41.81555556,
      "lon": -72.31694444,
      "drain_area_sqmi": 98.0,
      "alt_ft": 302.0,
      "site_type_cd": "ST"
    },
    {
      "id": "01119500",
      "site_no": "01119500",
      "name": "WILLIMANTIC RIVER NEAR COVENTRY, CT",
      "state": "09",
      "state_cd": "09",
      "huc_cd": "011000020108",
      "lat": 41.75053857,
      "lon": -72.26561677,
      "drain_area_sqmi": 121.0,
      "alt_ft": 238.04,
      "site_type_cd": "ST"
    },
    {
      "id": "01120790",
      "site_no": "01120790",
      "name": "NATCHAUG RIVER AT MARCY RD. NEAR CHAPLIN, CT",
      "state": "09",
      "state_cd": "09",
      "huc_cd": "011000020206",
      "lat": 41.81616944,
      "lon": -72.10616944,
      "drain_area_sqmi": 66.5,
      "alt_ft": 352.86,
      "site_type_cd": "ST"
    },
    {
      "id": "01121000",
      "site_no": "01121000",
      "name": "MOUNT HOPE RIVER NEAR WARRENVILLE, CT",
      "state": "09",
      "state_cd": "09",
      "huc_cd": "011000020205",
      "lat": 41.84359288,
      "lon": -72.16894625,
      "drain_area_sqmi": 28.6,
      "alt_ft": 334.84,
      "site_type_cd": "ST"
    },
    {
      "id": "01121330",
      "site_no": "01121330",
      "name": "FENTON RIVER AT MANSFIELD, CT",
      "state": "09",
      "state_cd": "09",
      "huc_cd": "011000020204",
      "lat": 41.83319444,
      "lon": -72.24278056,
      "drain_area_sqmi": 18.3,
      "alt_ft": 317.38,
      "site_type_cd": "ST"
    },
    {
      "id": "01122000",
      "site_no": "01122000",
      "name": "NATCHAUG RIVER AT WILLIMANTIC, CT",
      "state": "09",
      "state_cd": "09",
      "huc_cd": "011000020206",
      "lat": 41.7201,
      "lon": -72.195575,
      "drain_area_sqmi": 174.0,
      "alt_ft": 149.3,
      "site_type_cd": "ST"
    },
    {
      "id": "01122500",
      "site_no": "01122500",
      "name": "SHETUCKET RIVER NEAR WILLIMANTIC, CT",
      "state": "09",
      "state_cd": "09",
      "huc_cd": "011000020303",
      "lat": 41.70026088,
      "lon": -72.18200333,
      "drain_area_sqmi": 404.0,
      "alt_ft": 130.52,
      "site_type_cd": "ST"
    },
    {
      "id": "01123000",
      "site_no": "01123000",
      "name": "LITTLE RIVER NEAR HANOVER, CT",
      "state": "09",
      "state_cd": "09",
      "huc_cd": "011000020302",
      "lat": 41.67164947,
      "lon": -72.05227712,
      "drain_area_sqmi": 30.0,
      "alt_ft": 220.32,
      "site_type_cd": "ST"
    },
    {
      "id": "011230695",
      "site_no": "011230695",
      "name": "SHETUCKET RIVER AT TAFTVILLE, CT",
      "state": "09",
      "state_cd": "09",
      "huc_cd": "011000020303",
      "lat": 41.57000278,
      "lon": -72.04624444,
      "drain_area_sqmi": 512.0,
      "alt_ft": 18.14,
      "site_type_cd": "ST"
    },
    {
      "id": "01123360",
      "site_no": "01123360",
      "name": "QUINEBAUG R BL E BRIMFIELD DAM AT FISKDALE, MA",
      "state": "25",
      "state_cd": "25",
      "huc_cd": "01100001",
      "lat": 42.108375,
      "lon": -72.1261306,
      "drain_area_sqmi": 62.6,
      "alt_ft": 612.84,
      "site_type_cd": "ST"
    },
    {
      "id": "01123600",
      "site_no": "01123600",
      "name": "QUINEBAUG R BL WESTVILLE DAM NR SOUTHBRIDGE, MA",
      "state": "25",
      "state_cd": "25",
      "huc_cd": "01100001",
      "lat": 42.08261944,
      "lon": -72.0583806,
      "drain_area_sqmi": 94.4,
      "alt_ft": 510.64,
      "site_type_cd": "ST"
    },
    {
      "id": "01124000",
      "site_no": "01124000",
      "name": "QUINEBAUG RIVER AT QUINEBAUG, CT",
      "state": "09",
      "state_cd": "09",
      "huc_cd": "011000010105",
      "lat": 42.02220151,
      "lon": -71.95560457,
      "drain_area_sqmi": 155.0,
      "alt_ft": 340.77,
      "site_type_cd": "ST"
    },
    {
      "id": "01124151",
      "site_no": "01124151",
      "name": "QUINEBAUG RIVER AT WEST THOMPSON, CT",
      "state": "09",
      "state_cd": "09",
      "huc_cd": "011000010403",
      "lat": 41.94356667,
      "lon": -71.89959722,
      "drain_area_sqmi": 172.0,
      "alt_ft": 288.53,
      "site_type_cd": "ST"
    },
    {
      "id": "01124350",
      "site_no": "01124350",
      "name": "FRENCH RIVER BELOW DAM, AT HODGES VILLAGE, MA",
      "state": "25",
      "state_cd": "25",
      "huc_cd": "01100001",
      "lat": 42.1187063,
      "lon": -71.8809055,
      "drain_area_sqmi": 31.2,
      "alt_ft": 466.32,
      "site_type_cd": "ST"
    },
    {
      "id": "01124500",
      "site_no": "01124500",
      "name": "LITTLE RIVER NEAR OXFORD, MA",
      "state": "25",
      "state_cd": "25",
      "huc_cd": "01100001",
      "lat": 42.11592856,
      "lon": -71.89007238,
      "drain_area_sqmi": 27.4,
      "alt_ft": 456.33,
      "site_type_cd": "ST"
    },
    {
      "id": "01125000",
      "site_no": "01125000",
      "name": "FRENCH RIVER AT WEBSTER, MA",
      "state": "25",
      "state_cd": "25",
      "huc_cd": "01100001",
      "lat": 42.0509298,
      "lon": -71.8842387,
      "drain_area_sqmi": 86.0,
      "alt_ft": 406.0,
      "site_type_cd": "ST"
    },
    {
      "id": "01125100",
      "site_no": "01125100",
      "name": "FRENCH RIVER AT NORTH GROSVENORDALE, CT",
      "state": "09",
      "state_cd": "09",
      "huc_cd": "011000010204",
      "lat": 41.97846389,
      "lon": -71.90051389,
      "drain_area_sqmi": 101.0,
      "alt_ft": 330.99,
      "site_type_cd": "ST"
    },
    {
      "id": "01125490",
      "site_no": "01125490",
      "name": "LITTLE RIVER AT HARRISVILLE, CT",
      "state": "09",
      "state_cd": "09",
      "huc_cd": "011000010401",
      "lat": 41.92784444,
      "lon": -71.93000833,
      "drain_area_sqmi": 35.8,
      "alt_ft": 254.31,
      "site_type_cd": "ST"
    },
    {
      "id": "01125500",
      "site_no": "01125500",
      "name": "QUINEBAUG RIVER AT PUTNAM, CT",
      "state": "09",
      "state_cd": "09",
      "huc_cd": "011000010403",
      "lat": 41.909475,
      "lon": -71.91386389,
      "drain_area_sqmi": 328.0,
      "alt_ft": 215.98,
      "site_type_cd": "ST"
    },
    {
      "id": "01127000",
      "site_no": "01127000",
      "name": "QUINEBAUG RIVER AT JEWETT CITY, CT",
      "state": "09",
      "state_cd": "09",
      "huc_cd": "011000010704",
      "lat": 41.59749167,
      "lon": -71.98409444,
      "drain_area_sqmi": 713.0,
      "alt_ft": 62.14,
      "site_type_cd": "ST"
    },
    {
      "id": "01127500",
      "site_no": "01127500",
      "name": "YANTIC RIVER AT YANTIC, CT",
      "state": "09",
      "state_cd": "09",
      "huc_cd": "011000030103",
      "lat": 41.55859526,
      "lon": -72.1214469,
      "drain_area_sqmi": 89.3,
      "alt_ft": 93.52,
      "site_type_cd": "ST"
    },
    {
      "id": "0112779610",
      "site_no": "0112779610",
      "name": "BRIDE BROOK NR EAST LYME, CT",
      "state": "09",
      "state_cd": "09",
      "huc_cd": "011000030306",
      "lat": 41.32322222,
      "lon": -72.24175,
      "drain_area_sqmi": 2.76,
      "alt_ft": 9.52,
      "site_type_cd": "ST"
    },
    {
      "id": "01129200",
      "site_no": "01129200",
      "name": "CONNECTICUT R BELOW INDIAN STREAM NR PITTSBURG, NH",
      "state": "33",
      "state_cd": "33",
      "huc_cd": "01080101",
      "lat": 45.04032368,
      "lon": -71.4439704,
      "drain_area_sqmi": 254.0,
      "alt_ft": 1150.96,
      "site_type_cd": "ST"
    },
    {
      "id": "01129500",
      "site_no": "01129500",
      "name": "CONNECTICUT RIVER AT NORTH STRATFORD, NH",
      "state": "33",
      "state_cd": "33",
      "huc_cd": "01080101",
      "lat": 44.74977166,
      "lon": -71.63120018,
      "drain_area_sqmi": 799.0,
      "alt_ft": 879.8,
      "site_type_cd": "ST"
    },
    {
      "id": "01130000",
      "site_no": "01130000",
      "name": "UPPER AMMONOOSUC RIVER NEAR GROVETON, NH",
      "state": "33",
      "state_cd": "33",
      "huc_cd": "01080101",
      "lat": 44.62505316,
      "lon": -71.4689721,
      "drain_area_sqmi": 232.0,
      "alt_ft": 916.43,
      "site_type_cd": "ST"
    },
    {
      "id": "01131500",
      "site_no": "01131500",
      "name": "CONNECTICUT RIVER NEAR DALTON, NH",
      "state": "33",
      "state_cd": "33",
      "huc_cd": "01080101",
      "lat": 44.4100591,
      "lon": -71.7206438,
      "drain_area_sqmi": 1514.0,
      "alt_ft": 799.44,
      "site_type_cd": "ST"
    },
    {
      "id": "01133000",
      "site_no": "01133000",
      "name": "EAST BRANCH PASSUMPSIC RIVER NEAR EAST HAVEN, VT",
      "state": "50",
      "state_cd": "50",
      "huc_cd": "01080102",
      "lat": 44.63394195,
      "lon": -71.8975942,
      "drain_area_sqmi": 53.8,
      "alt_ft": 943.34,
      "site_type_cd": "ST"
    },
    {
      "id": "01134500",
      "site_no": "01134500",
      "name": "MOOSE RIVER AT VICTORY, VT",
      "state": "50",
      "state_cd": "50",
      "huc_cd": "01080102",
      "lat": 44.5117231,
      "lon": -71.8373143,
      "drain_area_sqmi": 75.2,
      "alt_ft": 1103.46,
      "site_type_cd": "ST"
    },
    {
      "id": "01134800",
      "site_no": "01134800",
      "name": "KIRBY BROOK AT CONCORD, VT",
      "state": "50",
      "state_cd": "50",
      "huc_cd": "01080102",
      "lat": 44.44172466,
      "lon": -71.8784255,
      "drain_area_sqmi": 8.05,
      "alt_ft": 920.0,
      "site_type_cd": "ST"
    },
    {
      "id": "01135100",
      "site_no": "01135100",
      "name": "POPE BROOK TRIBUTARY (W-9), NR NORTH DANVILLE, VT",
      "state": "50",
      "state_cd": "50",
      "huc_cd": "01080102",
      "lat": 44.49061087,
      "lon": -72.1617667,
      "drain_area_sqmi": 0.18,
      "alt_ft": 1720.57,
      "site_type_cd": "ST"
    },
    {
      "id": "01135150",
      "site_no": "01135150",
      "name": "POPE BROOK (SITE W-3) NEAR NORTH DANVILLE, VT",
      "state": "50",
      "state_cd": "50",
      "huc_cd": "01080102",
      "lat": 44.47616707,
      "lon": -72.1245431,
      "drain_area_sqmi": 3.25,
      "alt_ft": 1141.03,
      "site_type_cd": "ST"
    },
    {
      "id": "01135300",
      "site_no": "01135300",
      "name": "SLEEPERS RIVER (SITE W-5) NEAR ST. JOHNSBURY, VT",
      "state": "50",
      "state_cd": "50",
      "huc_cd": "01080102",
      "lat": 44.4353353,
      "lon": -72.03842899,
      "drain_area_sqmi": 42.9,
      "alt_ft": 641.27,
      "site_type_cd": "ST"
    },
    {
      "id": "01135500",
      "site_no": "01135500",
      "name": "PASSUMPSIC RIVER AT PASSUMPSIC, VT",
      "state": "50",
      "state_cd": "50",
      "huc_cd": "01080102",
      "lat": 44.3656147,
      "lon": -72.0392613,
      "drain_area_sqmi": 436.0,
      "alt_ft": 487.79,
      "site_type_cd": "ST"
    },
    {
      "id": "01137500",
      "site_no": "01137500",
      "name": "AMMONOOSUC RIVER AT BETHLEHEM JUNCTION, NH",
      "state": "33",
      "state_cd": "33",
      "huc_cd": "01080101",
      "lat": 44.2686741,
      "lon": -71.6303617,
      "drain_area_sqmi": 87.6,
      "alt_ft": 1180.48,
      "site_type_cd": "ST"
    },
    {
      "id": "01137940",
      "site_no": "01137940",
      "name": "AMMONOOSUC RIVER BELOW LISBON DAM, AT LISBON, NH",
      "state": "33",
      "state_cd": "33",
      "huc_cd": "01080101",
      "lat": 44.2125,
      "lon": -71.9141667,
      "drain_area_sqmi": 288.0,
      "alt_ft": 555.0,
      "site_type_cd": "ST"
    },
    {
      "id": "01138500",
      "site_no": "01138500",
      "name": "CONNECTICUT RIVER AT WELLS RIVER, VT",
      "state": "50",
      "state_cd": "50",
      "huc_cd": "01080101",
      "lat": 44.15339689,
      "lon": -72.0417577,
      "drain_area_sqmi": 2644.0,
      "alt_ft": 399.37,
      "site_type_cd": "ST"
    },
    {
      "id": "01139000",
      "site_no": "01139000",
      "name": "WELLS RIVER AT WELLS RIVER, VT",
      "state": "50",
      "state_cd": "50",
      "huc_cd": "01080103",
      "lat": 44.1503413,
      "lon": -72.0650915,
      "drain_area_sqmi": 98.4,
      "alt_ft": 505.2,
      "site_type_cd": "ST"
    },
    {
      "id": "01139800",
      "site_no": "01139800",
      "name": "EAST ORANGE BRANCH AT EAST ORANGE, VT",
      "state": "50",
      "state_cd": "50",
      "huc_cd": "01080103",
      "lat": 44.0928419,
      "lon": -72.33565327,
      "drain_area_sqmi": 8.95,
      "alt_ft": 1177.59,
      "site_type_cd": "ST"
    },
    {
      "id": "01141500",
      "site_no": "01141500",
      "name": "OMPOMPANOOSUC RIVER AT UNION VILLAGE, VT",
      "state": "50",
      "state_cd": "50",
      "huc_cd": "01080103",
      "lat": 43.79008627,
      "lon": -72.2549322,
      "drain_area_sqmi": 130.0,
      "alt_ft": 404.64,
      "site_type_cd": "ST"
    },
    {
      "id": "01142500",
      "site_no": "01142500",
      "name": "AYERS BROOK AT RANDOLPH, VT",
      "state": "50",
      "state_cd": "50",
      "huc_cd": "01080105",
      "lat": 43.93450969,
      "lon": -72.6578821,
      "drain_area_sqmi": 30.5,
      "alt_ft": 630.13,
      "site_type_cd": "ST"
    },
    {
      "id": "01144000",
      "site_no": "01144000",
      "name": "WHITE RIVER AT WEST HARTFORD, VT",
      "state": "50",
      "state_cd": "50",
      "huc_cd": "01080105",
      "lat": 43.71423614,
      "lon": -72.418149,
      "drain_area_sqmi": 690.0,
      "alt_ft": 374.32,
      "site_type_cd": "ST"
    },
    {
      "id": "01144500",
      "site_no": "01144500",
      "name": "CONNECTICUT RIVER AT WEST LEBANON, NH",
      "state": "33",
      "state_cd": "33",
      "huc_cd": "01080104",
      "lat": 43.64618187,
      "lon": -72.3123134,
      "drain_area_sqmi": 4092.0,
      "alt_ft": 321.11,
      "site_type_cd": "ST"
    },
    {
      "id": "01145000",
      "site_no": "01145000",
      "name": "MASCOMA RIVER AT WEST CANAAN, NH",
      "state": "33",
      "state_cd": "33",
      "huc_cd": "01080104",
      "lat": 43.65118308,
      "lon": -72.08480849,
      "drain_area_sqmi": 80.5,
      "alt_ft": 815.0,
      "site_type_cd": "ST"
    },
    {
      "id": "01150500",
      "site_no": "01150500",
      "name": "MASCOMA RIVER AT MASCOMA, NH",
      "state": "33",
      "state_cd": "33",
      "huc_cd": "01080104",
      "lat": 43.6489604,
      "lon": -72.182033,
      "drain_area_sqmi": 153.0,
      "alt_ft": 740.68,
      "site_type_cd": "ST"
    },
    {
      "id": "01150800",
      "site_no": "01150800",
      "name": "KENT BROOK NEAR KILLINGTON, VT",
      "state": "50",
      "state_cd": "50",
      "huc_cd": "01080106",
      "lat": 43.67340095,
      "lon": -72.8087143,
      "drain_area_sqmi": 3.31,
      "alt_ft": 1560.0,
      "site_type_cd": "ST"
    },
    {
      "id": "01150900",
      "site_no": "01150900",
      "name": "OTTAUQUECHEE RIVER NEAR WEST BRIDGEWATER, VT",
      "state": "50",
      "state_cd": "50",
      "huc_cd": "01080106",
      "lat": 43.62229069,
      "lon": -72.7589899,
      "drain_area_sqmi": 23.4,
      "alt_ft": 1148.59,
      "site_type_cd": "ST"
    },
    {
      "id": "01151500",
      "site_no": "01151500",
      "name": "OTTAUQUECHEE RIVER AT NORTH HARTLAND, VT",
      "state": "50",
      "state_cd": "50",
      "huc_cd": "01080106",
      "lat": 43.60257077,
      "lon": -72.35425819,
      "drain_area_sqmi": 221.0,
      "alt_ft": 350.27,
      "site_type_cd": "ST"
    },
    {
      "id": "01152010",
      "site_no": "01152010",
      "name": "SUGAR RIVER 0.2 MI BELOW NH 11, AT SUNAPEE, NH",
      "state": "33",
      "state_cd": "33",
      "huc_cd": "01080104",
      "lat": 43.3864634,
      "lon": -72.0911969,
      "drain_area_sqmi": 46.1,
      "alt_ft": 992.33,
      "site_type_cd": "ST"
    },
    {
      "id": "01152500",
      "site_no": "01152500",
      "name": "SUGAR RIVER AT WEST CLAREMONT, NH",
      "state": "33",
      "state_cd": "33",
      "huc_cd": "01080104",
      "lat": 43.38757327,
      "lon": -72.36203409,
      "drain_area_sqmi": 269.0,
      "alt_ft": 358.42,
      "site_type_cd": "ST"
    },
    {
      "id": "01153000",
      "site_no": "01153000",
      "name": "BLACK RIVER AT NORTH SPRINGFIELD, VT",
      "state": "50",
      "state_cd": "50",
      "huc_cd": "01080106",
      "lat": 43.33340716,
      "lon": -72.51481258,
      "drain_area_sqmi": 158.0,
      "alt_ft": 445.36,
      "site_type_cd": "ST"
    },
    {
      "id": "01153550",
      "site_no": "01153550",
      "name": "WILLIAMS RIVER NEAR ROCKINGHAM VT",
      "state": "50",
      "state_cd": "50",
      "huc_cd": "01080107",
      "lat": 43.1917433,
      "lon": -72.48508889,
      "drain_area_sqmi": 112.0,
      "alt_ft": 303.26,
      "site_type_cd": "ST"
    },
    {
      "id": "01154500",
      "site_no": "01154500",
      "name": "CONNECTICUT RIVER AT NORTH WALPOLE, NH",
      "state": "33",
      "state_cd": "33",
      "huc_cd": "01080104",
      "lat": 43.12618905,
      "lon": -72.4367549,
      "drain_area_sqmi": 5493.0,
      "alt_ft": 217.53,
      "site_type_cd": "ST"
    },
    {
      "id": "01154950",
      "site_no": "01154950",
      "name": "COLD RIVER AT HIGH STREET, AT ALSTEAD, NH",
      "state": "33",
      "state_cd": "33",
      "huc_cd": "01080104",
      "lat": 43.14944444,
      "lon": -72.3616667,
      "drain_area_sqmi": 74.6,
      "alt_ft": 452.0,
      "site_type_cd": "ST"
    },
    {
      "id": "01155500",
      "site_no": "01155500",
      "name": "WEST RIVER AT JAMAICA, VT",
      "state": "50",
      "state_cd": "50",
      "huc_cd": "01080107",
      "lat": 43.1089665,
      "lon": -72.775374,
      "drain_area_sqmi": 179.0,
      "alt_ft": 660.63,
      "site_type_cd": "ST"
    },
    {
      "id": "01155910",
      "site_no": "01155910",
      "name": "WEST RIVER BELOW TOWNSHEND DAM NEAR TOWNSHEND, VT",
      "state": "50",
      "state_cd": "50",
      "huc_cd": "01080107",
      "lat": 43.0511901,
      "lon": -72.7000939,
      "drain_area_sqmi": 282.0,
      "alt_ft": 452.11,
      "site_type_cd": "ST"
    },
    {
      "id": "01157000",
      "site_no": "01157000",
      "name": "ASHUELOT RIVER NEAR GILSUM, NH",
      "state": "33",
      "state_cd": "33",
      "huc_cd": "01080201",
      "lat": 43.03924586,
      "lon": -72.2700858,
      "drain_area_sqmi": 71.1,
      "alt_ft": 772.4,
      "site_type_cd": "ST"
    },
    {
      "id": "01158000",
      "site_no": "01158000",
      "name": "ASHUELOT RIVER BELOW SURRY MT DAM, NEAR KEENE, NH",
      "state": "33",
      "state_cd": "33",
      "huc_cd": "01080201",
      "lat": 42.9948023,
      "lon": -72.31119719,
      "drain_area_sqmi": 101.0,
      "alt_ft": 479.61,
      "site_type_cd": "ST"
    },
    {
      "id": "01158110",
      "site_no": "01158110",
      "name": "ASHUELOT RIVER ABOVE THE BRANCH, AT KEENE, NH",
      "state": "33",
      "state_cd": "33",
      "huc_cd": "01080201",
      "lat": 42.9192478,
      "lon": -72.279252,
      "drain_area_sqmi": 115.0,
      "alt_ft": 394.03,
      "site_type_cd": "ST"
    },
    {
      "id": "01158600",
      "site_no": "01158600",
      "name": "OTTER BROOK BELOW OTTER BROOK DAM, NEAR KEENE, NH",
      "state": "33",
      "state_cd": "33",
      "huc_cd": "01080201",
      "lat": 42.94591409,
      "lon": -72.2367514,
      "drain_area_sqmi": 47.2,
      "alt_ft": 658.65,
      "site_type_cd": "ST"
    },
    {
      "id": "01160350",
      "site_no": "01160350",
      "name": "ASHUELOT RIVER AT WEST SWANZEY, NH",
      "state": "33",
      "state_cd": "33",
      "huc_cd": "01080201",
      "lat": 42.87147076,
      "lon": -72.3281415,
      "drain_area_sqmi": 316.0,
      "alt_ft": 441.95,
      "site_type_cd": "ST"
    },
    {
      "id": "01161000",
      "site_no": "01161000",
      "name": "ASHUELOT RIVER AT HINSDALE, NH",
      "state": "33",
      "state_cd": "33",
      "huc_cd": "01080201",
      "lat": 42.78591586,
      "lon": -72.4861996,
      "drain_area_sqmi": 420.0,
      "alt_ft": 200.84,
      "site_type_cd": "ST"
    },
    {
      "id": "01161280",
      "site_no": "01161280",
      "name": "CONNECTICUT RIVER NEAR NORTHFIELD, MA",
      "state": "25",
      "state_cd": "25",
      "huc_cd": "010802010501",
      "lat": 42.68333333,
      "lon": -72.47194444,
      "drain_area_sqmi": 6730.0,
      "alt_ft": 185.0,
      "site_type_cd": "ST"
    },
    {
      "id": "01162000",
      "site_no": "01162000",
      "name": "MILLERS RIVER NEAR WINCHENDON, MA",
      "state": "25",
      "state_cd": "25",
      "huc_cd": "01080202",
      "lat": 42.6842527,
      "lon": -72.08341388,
      "drain_area_sqmi": 81.8,
      "alt_ft": 825.92,
      "site_type_cd": "ST"
    },
    {
      "id": "01162500",
      "site_no": "01162500",
      "name": "PRIEST BROOK NEAR WINCHENDON, MA",
      "state": "25",
      "state_cd": "25",
      "huc_cd": "01080202",
      "lat": 42.6825859,
      "lon": -72.1150812,
      "drain_area_sqmi": 19.4,
      "alt_ft": 848.95,
      "site_type_cd": "ST"
    },
    {
      "id": "01163200",
      "site_no": "01163200",
      "name": "OTTER RIVER AT OTTER RIVER, MA",
      "state": "25",
      "state_cd": "25",
      "huc_cd": "01080202",
      "lat": 42.58842124,
      "lon": -72.04091198,
      "drain_area_sqmi": 34.1,
      "alt_ft": 899.33,
      "site_type_cd": "ST"
    },
    {
      "id": "01165000",
      "site_no": "01165000",
      "name": "EAST BRANCH TULLY RIVER NEAR ATHOL, MA",
      "state": "25",
      "state_cd": "25",
      "huc_cd": "01080202",
      "lat": 42.64203054,
      "lon": -72.2250832,
      "drain_area_sqmi": 50.5,
      "alt_ft": 613.07,
      "site_type_cd": "ST"
    },
    {
      "id": "01165150",
      "site_no": "01165150",
      "name": "MILLERS RIVER AT ATHOL, MASS.",
      "state": "25",
      "state_cd": "25",
      "huc_cd": "01080202",
      "lat": 42.59258697,
      "lon": -72.23925,
      "drain_area_sqmi": null,
      "alt_ft": null,
      "site_type_cd": "ST"
    },
    {
      "id": "01166500",
      "site_no": "01166500",
      "name": "MILLERS RIVER AT ERVING, MA",
      "state": "25",
      "state_cd": "25",
      "huc_cd": "01080202",
      "lat": 42.5975862,
      "lon": -72.43786449,
      "drain_area_sqmi": 372.0,
      "alt_ft": 379.48,
      "site_type_cd": "ST"
    },
    {
      "id": "01168250",
      "site_no": "01168250",
      "name": "COLD RIVER AT FLORIDA, MA",
      "state": "25",
      "state_cd": "25",
      "huc_cd": "01080203",
      "lat": 42.66669444,
      "lon": -73.0301667,
      "drain_area_sqmi": 6.47,
      "alt_ft": 1539.6,
      "site_type_cd": "ST"
    },
    {
      "id": "01168500",
      "site_no": "01168500",
      "name": "DEERFIELD RIVER AT CHARLEMONT, MA",
      "state": "25",
      "state_cd": "25",
      "huc_cd": "01080203",
      "lat": 42.626,
      "lon": -72.8541944,
      "drain_area_sqmi": 361.0,
      "alt_ft": 516.84,
      "site_type_cd": "ST"
    },
    {
      "id": "01169000",
      "site_no": "01169000",
      "name": "NORTH RIVER AT SHATTUCKVILLE, MA",
      "state": "25",
      "state_cd": "25",
      "huc_cd": "01080203",
      "lat": 42.63841775,
      "lon": -72.7250922,
      "drain_area_sqmi": 89.0,
      "alt_ft": 457.86,
      "site_type_cd": "ST"
    },
    {
      "id": "01169900",
      "site_no": "01169900",
      "name": "SOUTH RIVER NEAR CONWAY, MA",
      "state": "25",
      "state_cd": "25",
      "huc_cd": "01080203",
      "lat": 42.5419228,
      "lon": -72.6936802,
      "drain_area_sqmi": 24.1,
      "alt_ft": 453.2,
      "site_type_cd": "ST"
    },
    {
      "id": "01170000",
      "site_no": "01170000",
      "name": "DEERFIELD RIVER NEAR WEST DEERFIELD, MA",
      "state": "25",
      "state_cd": "25",
      "huc_cd": "01080203",
      "lat": 42.53591957,
      "lon": -72.65342328,
      "drain_area_sqmi": 557.0,
      "alt_ft": 154.46,
      "site_type_cd": "ST"
    },
    {
      "id": "01170100",
      "site_no": "01170100",
      "name": "GREEN RIVER NEAR COLRAIN, MA",
      "state": "25",
      "state_cd": "25",
      "huc_cd": "01080203",
      "lat": 42.70341695,
      "lon": -72.67064738,
      "drain_area_sqmi": 41.4,
      "alt_ft": 434.51,
      "site_type_cd": "ST"
    },
    {
      "id": "01170500",
      "site_no": "01170500",
      "name": "CONNECTICUT RIVER AT MONTAGUE CITY, MA",
      "state": "25",
      "state_cd": "25",
      "huc_cd": "01080201",
      "lat": 42.5802222,
      "lon": -72.5745,
      "drain_area_sqmi": 7860.0,
      "alt_ft": 99.32,
      "site_type_cd": "ST"
    },
    {
      "id": "01171000",
      "site_no": "01171000",
      "name": "AVERY BROOK NR WHATELY, MA",
      "state": "25",
      "state_cd": "25",
      "huc_cd": null,
      "lat": 42.44980128,
      "lon": -72.6935282,
      "drain_area_sqmi": null,
      "alt_ft": 694.8,
      "site_type_cd": "ST"
    },
    {
      "id": "01171300",
      "site_no": "01171300",
      "name": "FORT RIVER NEAR AMHERST, MA",
      "state": "25",
      "state_cd": "25",
      "huc_cd": "01080201",
      "lat": 42.35842359,
      "lon": -72.50592039,
      "drain_area_sqmi": 41.5,
      "alt_ft": 147.0,
      "site_type_cd": "ST"
    },
    {
      "id": "01171500",
      "site_no": "01171500",
      "name": "MILL RIVER AT NORTHAMPTON, MA",
      "state": "25",
      "state_cd": "25",
      "huc_cd": "01080201",
      "lat": 42.31897839,
      "lon": -72.6650907,
      "drain_area_sqmi": 52.6,
      "alt_ft": 169.34,
      "site_type_cd": "ST"
    },
    {
      "id": "01172010",
      "site_no": "01172010",
      "name": "CONNECTICUT R AT I-391 BRIDGE AT HOLYOKE, MA",
      "state": "25",
      "state_cd": "25",
      "huc_cd": "010802010702",
      "lat": 42.19146944,
      "lon": -72.60931111,
      "drain_area_sqmi": 8332.0,
      "alt_ft": 63.0,
      "site_type_cd": "ST"
    },
    {
      "id": "01172500",
      "site_no": "01172500",
      "name": "WARE RIVER NEAR BARRE, MA",
      "state": "25",
      "state_cd": "25",
      "huc_cd": "01080204",
      "lat": 42.42509025,
      "lon": -72.0245212,
      "drain_area_sqmi": 55.1,
      "alt_ft": 744.33,
      "site_type_cd": "ST"
    },
    {
      "id": "01173000",
      "site_no": "01173000",
      "name": "WARE RIVER AT INTAKE WORKS NEAR BARRE, MA",
      "state": "25",
      "state_cd": "25",
      "huc_cd": "01080204",
      "lat": 42.39120167,
      "lon": -72.0650774,
      "drain_area_sqmi": 96.3,
      "alt_ft": 631.28,
      "site_type_cd": "ST"
    },
    {
      "id": "01173180",
      "site_no": "01173180",
      "name": "WARE RIVER AT BARRE PLAINS, MA",
      "state": "25",
      "state_cd": "25",
      "huc_cd": "01080204",
      "lat": 42.38009065,
      "lon": -72.1142451,
      "drain_area_sqmi": 115.0,
      "alt_ft": 574.0,
      "site_type_cd": "ST"
    },
    {
      "id": "01173500",
      "site_no": "01173500",
      "name": "WARE RIVER AT GIBBS CROSSING, MA",
      "state": "25",
      "state_cd": "25",
      "huc_cd": "01080204",
      "lat": 42.2362038,
      "lon": -72.27258047,
      "drain_area_sqmi": 197.0,
      "alt_ft": 379.15,
      "site_type_cd": "ST"
    },
    {
      "id": "01174500",
      "site_no": "01174500",
      "name": "EAST BRANCH SWIFT RIVER NEAR HARDWICK, MA",
      "state": "25",
      "state_cd": "25",
      "huc_cd": "01080204",
      "lat": 42.3934237,
      "lon": -72.2384148,
      "drain_area_sqmi": 43.7,
      "alt_ft": 504.06,
      "site_type_cd": "ST"
    },
    {
      "id": "01174565",
      "site_no": "01174565",
      "name": "WEST BRANCH SWIFT RIVER NEAR SHUTESBURY, MA",
      "state": "25",
      "state_cd": "25",
      "huc_cd": "01080204",
      "lat": 42.45508906,
      "lon": -72.3817516,
      "drain_area_sqmi": 12.6,
      "alt_ft": 539.44,
      "site_type_cd": "ST"
    },
    {
      "id": "01175500",
      "site_no": "01175500",
      "name": "SWIFT RIVER AT WEST WARE, MA",
      "state": "25",
      "state_cd": "25",
      "huc_cd": "01080204",
      "lat": 42.2678699,
      "lon": -72.3325824,
      "drain_area_sqmi": 189.0,
      "alt_ft": 364.54,
      "site_type_cd": "ST"
    },
    {
      "id": "01175670",
      "site_no": "01175670",
      "name": "SEVENMILE RIVER NEAR SPENCER, MA",
      "state": "25",
      "state_cd": "25",
      "huc_cd": "01080204",
      "lat": 42.26481407,
      "lon": -72.0042418,
      "drain_area_sqmi": 8.81,
      "alt_ft": 629.4,
      "site_type_cd": "ST"
    },
    {
      "id": "01176000",
      "site_no": "01176000",
      "name": "QUABOAG RIVER AT WEST BRIMFIELD, MA",
      "state": "25",
      "state_cd": "25",
      "huc_cd": "01080204",
      "lat": 42.18231566,
      "lon": -72.263691,
      "drain_area_sqmi": 150.0,
      "alt_ft": 389.36,
      "site_type_cd": "ST"
    },
    {
      "id": "01177000",
      "site_no": "01177000",
      "name": "CHICOPEE RIVER AT INDIAN ORCHARD, MA",
      "state": "25",
      "state_cd": "25",
      "huc_cd": "01080204",
      "lat": 42.16064906,
      "lon": -72.5139756,
      "drain_area_sqmi": 689.0,
      "alt_ft": 124.31,
      "site_type_cd": "ST"
    },