{
  "description": "Live zero-shot river-discharge forecast subset: ~2000 USGS gauges across all 50 states + DC, harvested from active daily-mean discharge sites with drainage area >= 50 sqmi",
  "selection_criteria": "Curated free-flowing + popular USGS gauges; verified IDs/names against USGS NWIS site service. Mix of pure-whitewater, regional flagship rivers, and snowmelt-anchor sites for forecast diversity.",
  "source_benchmark": "andrewnakas/north-america-river-watch (2026-04-21 run)",
  "stations": [
    {
      "id": "06192500",
      "name": "Yellowstone River near Livingston, MT",
      "state": "MT",
      "site_no": "06192500",
      "lat": 45.5972111,
      "lon": -110.5664972,
      "drain_area_sqmi": 3551.0,
      "alt_ft": 4542.49,
      "huc_cd": "10070002",
      "state_cd": "30"
    },
    {
      "id": "13337000",
      "name": "LOCHSA RIVER NR LOWELL ID",
      "state": "ID",
      "site_no": "13337000",
      "lat": 46.1508333,
      "lon": -115.5872222,
      "drain_area_sqmi": 1178.0,
      "alt_ft": 1462.5,
      "huc_cd": "17060303",
      "state_cd": "16"
    },
    {
      "id": "13336500",
      "name": "SELWAY RIVER NR LOWELL ID",
      "state": "ID",
      "site_no": "13336500",
      "lat": 46.08666667,
      "lon": -115.5138889,
      "drain_area_sqmi": 1915.0,
      "alt_ft": 1533.45,
      "huc_cd": "17060302",
      "state_cd": "16"
    },
    {
      "id": "06036905",
      "name": "Firehole River near West Yellowstone MT",
      "state": "WY",
      "site_no": "06036905",
      "lat": 44.6201833,
      "lon": -110.8635028,
      "drain_area_sqmi": 261.0,
      "alt_ft": 7050.0,
      "huc_cd": "10020007",
      "state_cd": "56"
    },
    {
      "id": "15056560",
      "name": "KLEHINI R NR KLUKWAN AK",
      "state": "AK",
      "site_no": "15056560",
      "lat": 59.413056,
      "lon": -135.996944,
      "drain_area_sqmi": 285.0,
      "alt_ft": 105.3,
      "huc_cd": "190103031208",
      "state_cd": "02"
    },
    {
      "id": "02231000",
      "name": "ST. MARYS RIVER NEAR MACCLENNY, FL",
      "state": "FL",
      "site_no": "02231000",
      "lat": 30.35884726,
      "lon": -82.0815013,
      "drain_area_sqmi": 700.0,
      "alt_ft": 40.0,
      "huc_cd": "03070204",
      "state_cd": "12"
    },
    {
      "id": "06037100",
      "name": "Gibbon River at Madison Jct, YNP",
      "state": "WY",
      "site_no": "06037100",
      "lat": 44.6408,
      "lon": -110.8610639,
      "drain_area_sqmi": 125.0,
      "alt_ft": 6800.0,
      "huc_cd": "10020007",
      "state_cd": "56"
    },
    {
      "id": "06048650",
      "name": "E Gallatin R ab Water Reclamation Fa nr Bozeman MT",
      "state": "MT",
      "site_no": "06048650",
      "lat": 45.72566667,
      "lon": -111.0661944,
      "drain_area_sqmi": 226.0,
      "alt_ft": 4625.0,
      "huc_cd": "10020008",
      "state_cd": "30"
    },
    {
      "id": "15052000",
      "name": "LEMON C NR JUNEAU AK",
      "state": "AK",
      "site_no": "15052000",
      "lat": 58.3915312,
      "lon": -134.4226873,
      "drain_area_sqmi": 12.3,
      "alt_ft": 667.1,
      "huc_cd": "19010301",
      "state_cd": "02"
    },
    {
      "id": "15055500",
      "name": "ANTLER R BL ANTLER LK NR AUKE BAY AK",
      "state": "AK",
      "site_no": "15055500",
      "lat": 58.85181328,
      "lon": -134.7104997,
      "drain_area_sqmi": 23.5,
      "alt_ft": 128.7,
      "huc_cd": "19010301",
      "state_cd": "02"
    },
    {
      "id": "06036805",
      "name": "Firehole River at Old Faithful, YNP",
      "state": "WY",
      "site_no": "06036805",
      "lat": 44.4593333,
      "lon": -110.8222722,
      "drain_area_sqmi": 39.5,
      "alt_ft": 7352.0,
      "huc_cd": "10020007",
      "state_cd": "56"
    },
    {
      "id": "15052500",
      "name": "MENDENHALL R NR AUKE BAY AK",
      "state": "AK",
      "site_no": "15052500",
      "lat": 58.4293972,
      "lon": -134.5745592,
      "drain_area_sqmi": 84.8,
      "alt_ft": 60.0,
      "huc_cd": "19010301",
      "state_cd": "02"
    },
    {
      "id": "06195600",
      "name": "Shields River nr Livingston MT",
      "state": "MT",
      "site_no": "06195600",
      "lat": 45.7383611,
      "lon": -110.4794694,
      "drain_area_sqmi": 846.0,
      "alt_ft": 4420.0,
      "huc_cd": "10070003",
      "state_cd": "30"
    },
    {
      "id": "06050000",
      "name": "Hyalite C at Hyalite R S nr Bozeman MT",
      "state": "MT",
      "site_no": "06050000",
      "lat": 45.56332778,
      "lon": -111.0718889,
      "drain_area_sqmi": 48.5,
      "alt_ft": 5539.6,
      "huc_cd": "10020008",
      "state_cd": "30"
    },
    {
      "id": "10068500",
      "name": "BEAR RIVER AT PESCADERO ID",
      "state": "ID",
      "site_no": "10068500",
      "lat": 42.4015929,
      "lon": -111.356875,
      "drain_area_sqmi": 3705.0,
      "alt_ft": 5909.85,
      "huc_cd": "16010201",
      "state_cd": "16"
    },
    {
      "id": "06036940",
      "name": "Tantalus Creek at Norris Junction, YNP",
      "state": "WY",
      "site_no": "06036940",
      "lat": 44.732725,
      "lon": -110.7132528,
      "drain_area_sqmi": 1.1,
      "alt_ft": 7460.0,
      "huc_cd": "10020007",
      "state_cd": "56"
    },
    {
      "id": "06708800",
      "name": "EAST PLUM CR ABV HASKINS GULCH NR CASTLE ROCK, CO",
      "state": "CO",
      "site_no": "06708800",
      "lat": 39.423,
      "lon": -104.9046111,
      "drain_area_sqmi": 116.0,
      "alt_ft": 5943.55,
      "huc_cd": "10190002",
      "state_cd": "08"
    },
    {
      "id": "15008000",
      "name": "SALMON R NR HYDER AK",
      "state": "AK",
      "site_no": "15008000",
      "lat": 56.026111,
      "lon": -130.065278,
      "drain_area_sqmi": 107.0,
      "alt_ft": 286.0,
      "huc_cd": "190101060106",
      "state_cd": "02"
    },
    {
      "id": "09180000",
      "name": "DOLORES RIVER NEAR CISCO, UT",
      "state": "UT",
      "site_no": "09180000",
      "lat": 38.79720805,
      "lon": -109.1951142,
      "drain_area_sqmi": 4580.0,
      "alt_ft": 4168.32,
      "huc_cd": "14030004",
      "state_cd": "49"
    },
    {
      "id": "15057596",
      "name": "SALMON R AT GUSTAVUS AK",
      "state": "AK",
      "site_no": "15057596",
      "lat": 58.445,
      "lon": -135.74,
      "drain_area_sqmi": 33.2,
      "alt_ft": 22.8,
      "huc_cd": "190103021404",
      "state_cd": "02"
    },
    {
      "id": "15101490",
      "name": "GREENS C AT GREENS CREEK MINE NR JUNEAU AK",
      "state": "AK",
      "site_no": "15101490",
      "lat": 58.083333,
      "lon": -134.631667,
      "drain_area_sqmi": 8.9,
      "alt_ft": 860.8,
      "huc_cd": "190102040801",
      "state_cd": "02"
    },
    {
      "id": "06814000",
      "name": "TURKEY C NR SENECA, KS",
      "state": "KS",
      "site_no": "06814000",
      "lat": 39.9477773,
      "lon": -96.1086149,
      "drain_area_sqmi": 276.0,
      "alt_ft": 1037.72,
      "huc_cd": "10240007",
      "state_cd": "20"
    },
    {
      "id": "07207000",
      "name": "CIMARRON RIVER NEAR CIMARRON, NM",
      "state": "NM",
      "site_no": "07207000",
      "lat": 36.5198333,
      "lon": -104.9786111,
      "drain_area_sqmi": 294.0,
      "alt_ft": 6602.93,
      "huc_cd": "11080002",
      "state_cd": "35"
    },
    {
      "id": "10125500",
      "name": "MALAD RIVER AT WOODRUFF ID",
      "state": "ID",
      "site_no": "10125500",
      "lat": 42.0297222,
      "lon": -112.2295833,
      "drain_area_sqmi": 472.0,
      "alt_ft": 4366.79,
      "huc_cd": "16010204",
      "state_cd": "16"
    },
    {
      "id": "15088000",
      "name": "SAWMILL C NR SITKA AK",
      "state": "AK",
      "site_no": "15088000",
      "lat": 57.05121946,
      "lon": -135.2295913,
      "drain_area_sqmi": 38.7,
      "alt_ft": 1.9,
      "huc_cd": "19010212",
      "state_cd": "02"
    },
    {
      "id": "10039500",
      "name": "BEAR RIVER AT BORDER, WY",
      "state": "ID",
      "site_no": "10039500",
      "lat": 42.21104338,
      "lon": -111.0538022,
      "drain_area_sqmi": 2480.0,
      "alt_ft": 6056.85,
      "huc_cd": "16010102",
      "state_cd": "16"
    },
    {
      "id": "07203000",
      "name": "VERMEJO RIVER NEAR DAWSON, NM",
      "state": "NM",
      "site_no": "07203000",
      "lat": 36.68102778,
      "lon": -104.7863944,
      "drain_area_sqmi": 344.0,
      "alt_ft": 6378.0,
      "huc_cd": "11080001",
      "state_cd": "35"
    },
    {
      "id": "06043120",
      "name": "Gallatin River above Deer Creek, near Big Sky, MT",
      "state": "MT",
      "site_no": "06043120",
      "lat": 45.29727778,
      "lon": -111.2113917,
      "drain_area_sqmi": 537.6,
      "alt_ft": 5875.0,
      "huc_cd": "10020008",
      "state_cd": "30"
    },
    {
      "id": "09182400",
      "name": "CASTLE CREEK BELOW CASTLE VALLEY NEAR MOAB, UT",
      "state": "UT",
      "site_no": "09182400",
      "lat": 38.673859,
      "lon": -109.4501395,
      "drain_area_sqmi": 58.1,
      "alt_ft": 4120.0,
      "huc_cd": "14030005",
      "state_cd": "49"
    },
    {
      "id": "09379025",
      "name": "CHINLE CREEK AT CHINLE, AZ",
      "state": "AZ",
      "site_no": "09379025",
      "lat": 36.155,
      "lon": -109.5375,
      "drain_area_sqmi": 639.0,
      "alt_ft": 5550.0,
      "huc_cd": "14080204",
      "state_cd": "04"
    },
    {
      "id": "06620000",
      "name": "NORTH PLATTE RIVER NEAR NORTHGATE, CO",
      "state": "CO",
      "site_no": "06620000",
      "lat": 40.93663889,
      "lon": -106.3391944,
      "drain_area_sqmi": 1431.0,
      "alt_ft": 7820.99,
      "huc_cd": "10180001",
      "state_cd": "08"
    },
    {
      "id": "09379200",
      "name": "CHINLE CREEK NEAR MEXICAN WATER, AZ",
      "state": "AZ",
      "site_no": "09379200",
      "lat": 36.94388757,
      "lon": -109.71068655,
      "drain_area_sqmi": 3650.0,
      "alt_ft": 4732.26,
      "huc_cd": "140802041702",
      "state_cd": "04"
    },
    {
      "id": "06052500",
      "name": "Gallatin River at Logan MT",
      "state": "MT",
      "site_no": "06052500",
      "lat": 45.8862472,
      "lon": -111.4420083,
      "drain_area_sqmi": 1789.0,
      "alt_ft": 4086.42,
      "huc_cd": "10020008",
      "state_cd": "30"
    },
    {
      "id": "09417500",
      "name": "MEADOW VALLEY WASH AT EAGLE CYN NR URSINE, NV",
      "state": "NV",
      "site_no": "09417500",
      "lat": 38.0041285,
      "lon": -114.206927,
      "drain_area_sqmi": 293.0,
      "alt_ft": 5653.91,
      "huc_cd": "15010013",
      "state_cd": "32"
    },
    {
      "id": "09382000",
      "name": "PARIA RIVER AT LEES FERRY, AZ",
      "state": "AZ",
      "site_no": "09382000",
      "lat": 36.87221098,
      "lon": -111.59462862,
      "drain_area_sqmi": 1410.0,
      "alt_ft": 3126.26,
      "huc_cd": "140700070706",
      "state_cd": "04"
    },
    {
      "id": "09416000",
      "name": "MUDDY RV NR MOAPA, NV",
      "state": "NV",
      "site_no": "09416000",
      "lat": 36.7110817,
      "lon": -114.6952715,
      "drain_area_sqmi": 3944.0,
      "alt_ft": 1710.0,
      "huc_cd": "15010012",
      "state_cd": "32"
    },
    {
      "id": "09418500",
      "name": "MEADOW VALLEY WASH NR CALIENTE, NV",
      "state": "NV",
      "site_no": "09418500",
      "lat": 37.55837778,
      "lon": -114.5630556,
      "drain_area_sqmi": 1670.0,
      "alt_ft": 4200.0,
      "huc_cd": "15010013",
      "state_cd": "32"
    },
    {
      "id": "06043500",
      "name": "Gallatin River near Gallatin Gateway, MT",
      "state": "MT",
      "site_no": "06043500",
      "lat": 45.4973,
      "lon": -111.2707083,
      "drain_area_sqmi": 819.0,
      "alt_ft": 5167.67,
      "huc_cd": "10020008",
      "state_cd": "30"
    },
    {
      "id": "02176930",
      "name": "CHATTOOGA RIVER AT BURRELLS FORD, NR PINE MTN, GA",
      "state": "GA",
      "site_no": "02176930",
      "lat": 34.97452778,
      "lon": -83.1161667,
      "drain_area_sqmi": 46.7,
      "alt_ft": 2050.0,
      "huc_cd": "03060102",
      "state_cd": "13"
    },
    {
      "id": "10251300",
      "name": "AMARGOSA RV AT TECOPA, CA",
      "state": "CA",
      "site_no": "10251300",
      "lat": 35.84944444,
      "lon": -116.2308333,
      "drain_area_sqmi": 3090.0,
      "alt_ft": 1292.76,
      "huc_cd": "18090202",
      "state_cd": "06"
    },
    {
      "id": "03274650",
      "name": "WHITEWATER RIVER NEAR ECONOMY, IN",
      "state": "IN",
      "site_no": "03274650",
      "lat": 40.0041988,
      "lon": -85.1154894,
      "drain_area_sqmi": 10.4,
      "alt_ft": 1065.58,
      "huc_cd": "05080003",
      "state_cd": "18"
    },
    {
      "id": "05014500",
      "name": "Swiftcurrent Creek at Many Glacier MT",
      "state": "MT",
      "site_no": "05014500",
      "lat": 48.7988333,
      "lon": -113.6567306,
      "drain_area_sqmi": 31.2,
      "alt_ft": 4876.78,
      "huc_cd": "09040001",
      "state_cd": "30"
    },
    {
      "id": "01428750",
      "name": "West Branch Lackawaxen River near Aldenville, PA",
      "state": "PA",
      "site_no": "01428750",
      "lat": 41.67452998,
      "lon": -75.37601299,
      "drain_area_sqmi": 40.6,
      "alt_ft": 1244.0,
      "huc_cd": "02040103",
      "state_cd": "42"
    },
    {
      "id": "12340500",
      "name": "Clark Fork above Missoula MT",
      "state": "MT",
      "site_no": "12340500",
      "lat": 46.87676389,
      "lon": -113.9321194,
      "drain_area_sqmi": 6021.0,
      "alt_ft": 3198.3,
      "huc_cd": "17010204",
      "state_cd": "30"
    },
    {
      "id": "12340000",
      "name": "Blackfoot River near Bonner MT",
      "state": "MT",
      "site_no": "12340000",
      "lat": 46.8994111,
      "lon": -113.7563194,
      "drain_area_sqmi": 2287.0,
      "alt_ft": 3344.76,
      "huc_cd": "17010203",
      "state_cd": "30"
    },
    {
      "id": "12353000",
      "name": "Clark Fork below Missoula MT",
      "state": "MT",
      "site_no": "12353000",
      "lat": 46.8686333,
      "lon": -114.1277472,
      "drain_area_sqmi": 9017.0,
      "alt_ft": 3083.88,
      "huc_cd": "17010204",
      "state_cd": "30"
    },
    {
      "id": "12350250",
      "name": "Bitterroot River at Bell Crossing nr Victor MT",
      "state": "MT",
      "site_no": "12350250",
      "lat": 46.4432,
      "lon": -114.1237667,
      "drain_area_sqmi": 1944.0,
      "alt_ft": 3330.0,
      "huc_cd": "17010205",
      "state_cd": "30"
    },
    {
      "id": "12352500",
      "name": "Bitterroot River near Missoula MT",
      "state": "MT",
      "site_no": "12352500",
      "lat": 46.83173889,
      "lon": -114.054861,
      "drain_area_sqmi": 2824.0,
      "alt_ft": 3110.0,
      "huc_cd": "17010205",
      "state_cd": "30"
    },
    {
      "id": "06214500",
      "name": "Yellowstone River at Billings MT",
      "state": "MT",
      "site_no": "06214500",
      "lat": 45.800119,
      "lon": -108.468031,
      "drain_area_sqmi": 11807.0,
      "alt_ft": 3081.72,
      "huc_cd": "100700041006",
      "state_cd": "30"
    },
    {
      "id": "06329500",
      "name": "Yellowstone River near Sidney MT",
      "state": "MT",
      "site_no": "06329500",
      "lat": 47.67741389,
      "lon": -104.1554111,
      "drain_area_sqmi": 69099.0,
      "alt_ft": 1882.87,
      "huc_cd": "10100004",
      "state_cd": "30"
    },
    {
      "id": "06191500",
      "name": "Yellowstone River at Corwin Springs MT",
      "state": "MT",
      "site_no": "06191500",
      "lat": 45.1121194,
      "lon": -110.7936667,
      "drain_area_sqmi": 2615.0,
      "alt_ft": 5079.09,
      "huc_cd": "10070002",
      "state_cd": "30"
    },
    {
      "id": "06037500",
      "name": "Madison River near West Yellowstone, MT",
      "state": "MT",
      "site_no": "06037500",
      "lat": 44.6570722,
      "lon": -111.0679639,
      "drain_area_sqmi": 438.0,
      "alt_ft": 6650.0,
      "huc_cd": "10020007",
      "state_cd": "30"
    },
    {
      "id": "06038500",
      "name": "Madison River bl Hebgen Lake nr Grayling MT",
      "state": "WY",
      "site_no": "06038500",
      "lat": 44.86639167,
      "lon": -111.3387806,
      "drain_area_sqmi": 931.0,
      "alt_ft": 6448.47,
      "huc_cd": "10020007",
      "state_cd": "30"
    },
    {
      "id": "06024450",
      "name": "Big Hole River bl Big Lake Cr at Wisdom MT",
      "state": "WY",
      "site_no": "06024450",
      "lat": 45.61796667,
      "lon": -113.4569417,
      "drain_area_sqmi": 586.0,
      "alt_ft": 6040.0,
      "huc_cd": "10020004",
      "state_cd": "30"
    },
    {
      "id": "06016000",
      "name": "Beaverhead River at Barretts MT",
      "state": "WY",
      "site_no": "06016000",
      "lat": 45.11612778,
      "lon": -112.7504944,
      "drain_area_sqmi": 2730.0,
      "alt_ft": 5268.17,
      "huc_cd": "10020002",
      "state_cd": "30"
    },
    {
      "id": "13317000",
      "name": "SALMON RIVER AT WHITE BIRD ID",
      "state": "ID",
      "site_no": "13317000",
      "lat": 45.75027778,
      "lon": -116.3238889,
      "drain_area_sqmi": 13421.0,
      "alt_ft": 1416.01,
      "huc_cd": "17060209",
      "state_cd": "16"
    },
    {
      "id": "13310700",
      "name": "SF SALMON RIVER NR KRASSEL RANGER STATION ID",
      "state": "ID",
      "site_no": "13310700",
      "lat": 44.9869444,
      "lon": -115.725,
      "drain_area_sqmi": 330.0,
      "alt_ft": 3750.0,
      "huc_cd": "17060208",
      "state_cd": "16"
    },
    {
      "id": "13309220",
      "name": "MF SALMON RIVER AT MF LODGE NR YELLOW PINE ID",
      "state": "ID",
      "site_no": "13309220",
      "lat": 44.7215194,
      "lon": -115.0143472,
      "drain_area_sqmi": 1042.0,
      "alt_ft": 4384.4,
      "huc_cd": "17060205",
      "state_cd": "16"
    },
    {
      "id": "13340000",
      "name": "CLEARWATER RIVER AT OROFINO ID",
      "state": "ID",
      "site_no": "13340000",
      "lat": 46.4783333,
      "lon": -116.2575,
      "drain_area_sqmi": 5507.0,
      "alt_ft": 993.89,
      "huc_cd": "17060306",
      "state_cd": "16"
    },
    {
      "id": "13338500",
      "name": "SF CLEARWATER RIVER AT STITES ID",
      "state": "ID",
      "site_no": "13338500",
      "lat": 46.08638889,
      "lon": -115.9766667,
      "drain_area_sqmi": 1168.0,
      "alt_ft": 1327.12,
      "huc_cd": "17060305",
      "state_cd": "16"
    },
    {
      "id": "13302500",
      "name": "SALMON RIVER AT SALMON ID",
      "state": "ID",
      "site_no": "13302500",
      "lat": 45.1836111,
      "lon": -113.8952778,
      "drain_area_sqmi": 3737.0,
      "alt_ft": 3914.99,
      "huc_cd": "17060203",
      "state_cd": "16"
    },
    {
      "id": "13247500",
      "name": "PAYETTE RIVER NR HORSESHOE BEND ID",
      "state": "ID",
      "site_no": "13247500",
      "lat": 43.943333,
      "lon": -116.196667,
      "drain_area_sqmi": 2220.0,
      "alt_ft": 2628.69,
      "huc_cd": "170501220107",
      "state_cd": "16"
    },
    {
      "id": "13251000",
      "name": "PAYETTE RIVER NR PAYETTE ID",
      "state": "ID",
      "site_no": "13251000",
      "lat": 44.042222,
      "lon": -116.925278,
      "drain_area_sqmi": 3240.0,
      "alt_ft": 2142.06,
      "huc_cd": "170501220905",
      "state_cd": "16"
    },
    {
      "id": "13186000",
      "name": "SF BOISE RIVER NR FEATHERVILLE ID",
      "state": "ID",
      "site_no": "13186000",
      "lat": 43.4958333,
      "lon": -115.3080556,
      "drain_area_sqmi": 641.0,
      "alt_ft": 4222.39,
      "huc_cd": "17050113",
      "state_cd": "16"
    },
    {
      "id": "12413000",
      "name": "NF COEUR D ALENE RIVER AT ENAVILLE ID",
      "state": "ID",
      "site_no": "12413000",
      "lat": 47.5722,
      "lon": -116.2528,
      "drain_area_sqmi": 895.0,
      "alt_ft": 2179.08,
      "huc_cd": "17010301",
      "state_cd": "16"
    },
    {
      "id": "09085000",
      "name": "ROARING FORK RIVER AT GLENWOOD SPRINGS, CO.",
      "state": "CO",
      "site_no": "09085000",
      "lat": 39.54666667,
      "lon": -107.33083333,
      "drain_area_sqmi": 1453.0,
      "alt_ft": 5720.05,
      "huc_cd": "140100041003",
      "state_cd": "08"
    },
    {
      "id": "09080400",
      "name": "FRYINGPAN RIVER NEAR RUEDI, CO.",
      "state": "CO",
      "site_no": "09080400",
      "lat": 39.36554075,
      "lon": -106.8255948,
      "drain_area_sqmi": 237.0,
      "alt_ft": 7478.19,
      "huc_cd": "14010004",
      "state_cd": "08"
    },
    {
      "id": "09124500",
      "name": "LAKE FORK AT GATEVIEW, CO.",
      "state": "CO",
      "site_no": "09124500",
      "lat": 38.2988834,
      "lon": -107.2300557,
      "drain_area_sqmi": 339.0,
      "alt_ft": 7833.68,
      "huc_cd": "14020002",
      "state_cd": "08"
    },
    {
      "id": "09110000",
      "name": "TAYLOR RIVER AT ALMONT, CO.",
      "state": "CO",
      "site_no": "09110000",
      "lat": 38.664444,
      "lon": -106.844722,
      "drain_area_sqmi": 476.0,
      "alt_ft": 8016.2,
      "huc_cd": "140200010113",
      "state_cd": "08"
    },
    {
      "id": "09128000",
      "name": "GUNNISON RIVER BELOW GUNNISON TUNNEL, CO",
      "state": "CO",
      "site_no": "09128000",
      "lat": 38.52915336,
      "lon": -107.648947,
      "drain_area_sqmi": 3971.0,
      "alt_ft": 6514.2,
      "huc_cd": "14020002",
      "state_cd": "08"
    },
    {
      "id": "09239500",
      "name": "YAMPA RIVER AT STEAMBOAT SPRINGS, CO",
      "state": "CO",
      "site_no": "09239500",
      "lat": 40.48298611,
      "lon": -106.83243056,
      "drain_area_sqmi": 567.0,
      "alt_ft": 6701.31,
      "huc_cd": "140500010409",
      "state_cd": "08"
    },
    {
      "id": "09251000",
      "name": "YAMPA RIVER NEAR MAYBELL, CO",
      "state": "CO",
      "site_no": "09251000",
      "lat": 40.50273085,
      "lon": -108.0334482,
      "drain_area_sqmi": 3383.0,
      "alt_ft": 5904.25,
      "huc_cd": "140500020406",
      "state_cd": "08"
    },
    {
      "id": "09304500",
      "name": "WHITE RIVER NEAR MEEKER, CO.",
      "state": "UT",
      "site_no": "09304500",
      "lat": 40.03359167,
      "lon": -107.86241944,
      "drain_area_sqmi": 760.0,
      "alt_ft": 6305.24,
      "huc_cd": "140500050310",
      "state_cd": "08"
    },
    {
      "id": "09328500",
      "name": "SAN RAFAEL RIVER NEAR GREEN RIVER, UT",
      "state": "UT",
      "site_no": "09328500",
      "lat": 38.8583081,
      "lon": -110.3701469,
      "drain_area_sqmi": 1628.0,
      "alt_ft": 4180.95,
      "huc_cd": "14060009",
      "state_cd": "49"
    },
    {
      "id": "09380000",
      "name": "COLORADO RIVER AT LEES FERRY, AZ",
      "state": "AZ",
      "site_no": "09380000",
      "lat": 36.86433333,
      "lon": -111.58787222,
      "drain_area_sqmi": 111800.0,
      "alt_ft": 3109.13,
      "huc_cd": "140700061105",
      "state_cd": "04"
    },
    {
      "id": "09185600",
      "name": "COLORADO RIVER AT POTASH, UT",
      "state": "UT",
      "site_no": "09185600",
      "lat": 38.5047222,
      "lon": -109.6583333,
      "drain_area_sqmi": 25406.0,
      "alt_ft": 3926.29,
      "huc_cd": "14030005",
      "state_cd": "49"
    },
    {
      "id": "09404200",
      "name": "COLORADO RVR ABV DIAMOND CREEK NR PEACH SPRINGS AZ",
      "state": "UT",
      "site_no": "09404200",
      "lat": 35.7735994,
      "lon": -113.363544,
      "drain_area_sqmi": 149316.0,
      "alt_ft": 1340.0,
      "huc_cd": "15010002",
      "state_cd": "04"
    },
    {
      "id": "12134500",
      "name": "SKYKOMISH RIVER NEAR GOLD BAR, WA",
      "state": "WA",
      "site_no": "12134500",
      "lat": 47.83732546,
      "lon": -121.6667809,
      "drain_area_sqmi": 535.0,
      "alt_ft": 212.91,
      "huc_cd": "17110009",
      "state_cd": "53"
    },
    {
      "id": "12141300",
      "name": "MIDDLE FORK SNOQUALMIE RIVER NEAR TANNER, WA",
      "state": "WA",
      "site_no": "12141300",
      "lat": 47.48591189,
      "lon": -121.647864,
      "drain_area_sqmi": 154.0,
      "alt_ft": 784.61,
      "huc_cd": "17110010",
      "state_cd": "53"
    },
    {
      "id": "12048000",
      "name": "DUNGENESS RIVER NEAR SEQUIM, WA",
      "state": "WA",
      "site_no": "12048000",
      "lat": 48.0142578,
      "lon": -123.1326773,
      "drain_area_sqmi": 156.0,
      "alt_ft": 565.9,
      "huc_cd": "17110020",
      "state_cd": "53"
    },
    {
      "id": "14305500",
      "name": "SILETZ RIVER AT SILETZ, OR",
      "state": "OR",
      "site_no": "14305500",
      "lat": 44.7151172,
      "lon": -123.8873348,
      "drain_area_sqmi": 202.0,
      "alt_ft": 102.32,
      "huc_cd": "17100204",
      "state_cd": "41"
    },
    {
      "id": "14162500",
      "name": "MCKENZIE RIVER NEAR VIDA, OR",
      "state": "OR",
      "site_no": "14162500",
      "lat": 44.1248487,
      "lon": -122.47062,
      "drain_area_sqmi": 930.0,
      "alt_ft": 855.71,
      "huc_cd": "17090004",
      "state_cd": "41"
    },
    {
      "id": "14211720",
      "name": "WILLAMETTE RIVER AT PORTLAND, OR",
      "state": "OR",
      "site_no": "14211720",
      "lat": 45.5175,
      "lon": -122.6691667,
      "drain_area_sqmi": 11200.0,
      "alt_ft": 1.55,
      "huc_cd": "17090012",
      "state_cd": "41"
    },
    {
      "id": "14377100",
      "name": "ILLINOIS RIVER NEAR KERBY, OR",
      "state": "OR",
      "site_no": "14377100",
      "lat": 42.23177936,
      "lon": -123.66368,
      "drain_area_sqmi": 380.0,
      "alt_ft": 1198.8,
      "huc_cd": "17100311",
      "state_cd": "41"
    },
    {
      "id": "11475000",
      "name": "EEL R A FORT SEWARD CA",
      "state": "CA",
      "site_no": "11475000",
      "lat": 40.21816919,
      "lon": -123.6325017,
      "drain_area_sqmi": 2107.0,
      "alt_ft": 220.33,
      "huc_cd": "18010105",
      "state_cd": "06"
    },
    {
      "id": "11186000",
      "name": "KERN R NR KERNVILLE (RIVER ONLY) CA",
      "state": "CA",
      "site_no": "11186000",
      "lat": 35.94522615,
      "lon": -118.4775862,
      "drain_area_sqmi": 846.0,
      "alt_ft": 3620.0,
      "huc_cd": "18030001",
      "state_cd": "06"
    },
    {
      "id": "11264500",
      "name": "MERCED R A HAPPY ISLES BRIDGE NR YOSEMITE CA",
      "state": "CA",
      "site_no": "11264500",
      "lat": 37.73130354,
      "lon": -119.5590243,
      "drain_area_sqmi": 181.0,
      "alt_ft": 4020.46,
      "huc_cd": "18040008",
      "state_cd": "06"
    },
    {
      "id": "11335000",
      "name": "COSUMNES R A MICHIGAN BAR CA",
      "state": "CA",
      "site_no": "11335000",
      "lat": 38.5001656,
      "lon": -121.0451852,
      "drain_area_sqmi": 536.0,
      "alt_ft": 170.68,
      "huc_cd": "18040013",
      "state_cd": "06"
    },
    {
      "id": "11427000",
      "name": "NF AMERICAN R A NORTH FORK DAM CA",
      "state": "CA",
      "site_no": "11427000",
      "lat": 38.9359915,
      "lon": -121.023802,
      "drain_area_sqmi": 342.0,
      "alt_ft": 717.28,
      "huc_cd": "18020128",
      "state_cd": "06"
    },
    {
      "id": "10336660",
      "name": "BLACKWOOD C NR TAHOE CITY CA",
      "state": "CA",
      "site_no": "10336660",
      "lat": 39.107385,
      "lon": -120.1621147,
      "drain_area_sqmi": 11.2,
      "alt_ft": 6228.47,
      "huc_cd": "16050101",
      "state_cd": "06"
    },
    {
      "id": "03473000",
      "name": "S F HOLSTON RIVER NEAR DAMASCUS, VA",
      "state": "VA",
      "site_no": "03473000",
      "lat": 36.65178127,
      "lon": -81.8440102,
      "drain_area_sqmi": 303.0,
      "alt_ft": 1792.3,
      "huc_cd": "06010102",
      "state_cd": "51"
    },
    {
      "id": "01605500",
      "name": "SOUTH BRANCH POTOMAC RIVER AT FRANKLIN, WV",
      "state": "WV",
      "site_no": "01605500",
      "lat": 38.63567247,
      "lon": -79.3378199,
      "drain_area_sqmi": 179.0,
      "alt_ft": 1692.92,
      "huc_cd": "02070001",
      "state_cd": "54"
    },
    {
      "id": "03187500",
      "name": "CRANBERRY RIVER NEAR RICHWOOD, WV",
      "state": "WV",
      "site_no": "03187500",
      "lat": 38.2953903,
      "lon": -80.5264749,
      "drain_area_sqmi": 80.4,
      "alt_ft": 2129.8,
      "huc_cd": "05050005",
      "state_cd": "54"
    },
    {
      "id": "03186500",
      "name": "WILLIAMS RIVER AT DYER, WV",
      "state": "WV",
      "site_no": "03186500",
      "lat": 38.37899915,
      "lon": -80.4839737,
      "drain_area_sqmi": 128.0,
      "alt_ft": 2193.9,
      "huc_cd": "05050005",
      "state_cd": "54"
    },
    {
      "id": "01413500",
      "name": "EAST BRANCH DELAWARE RIVER AT MARGARETVILLE NY",
      "state": "NY",
      "site_no": "01413500",
      "lat": 42.14477778,
      "lon": -74.65336111,
      "drain_area_sqmi": 163.0,
      "alt_ft": 1301.67,
      "huc_cd": "020401020306",
      "state_cd": "36"
    },
    {
      "id": "01411500",
      "name": "Maurice River at Norma NJ",
      "state": "NJ",
      "site_no": "01411500",
      "lat": 39.49555556,
      "lon": -75.07694444,
      "drain_area_sqmi": 112.0,
      "alt_ft": 45.52,
      "huc_cd": "020402060405",
      "state_cd": "34"
    },
    {
      "id": "01055000",
      "name": "Swift River near Roxbury, Maine",
      "state": "ME",
      "site_no": "01055000",
      "lat": 44.64277778,
      "lon": -70.58888889,
      "drain_area_sqmi": 96.4,
      "alt_ft": 615.27,
      "huc_cd": "01040002",
      "state_cd": "23"
    },
    {
      "id": "01334500",
      "name": "HOOSIC RIVER NEAR EAGLE BRIDGE NY",
      "state": "MA",
      "site_no": "01334500",
      "lat": 42.9385833,
      "lon": -73.3769444,
      "drain_area_sqmi": 510.0,
      "alt_ft": 354.79,
      "huc_cd": "02020003",
      "state_cd": "36"
    },
    {
      "id": "02053200",
      "name": "POTECASI CREEK NEAR UNION, NC",
      "state": "NC",
      "site_no": "02053200",
      "lat": 36.3708333,
      "lon": -77.0255556,
      "drain_area_sqmi": 225.0,
      "alt_ft": 2.4,
      "huc_cd": "03010204",
      "state_cd": "37"
    },
    {
      "id": "03451500",
      "name": "FRENCH BROAD RIVER AT ASHEVILLE, NC",
      "state": "NC",
      "site_no": "03451500",
      "lat": 35.60888889,
      "lon": -82.5780556,
      "drain_area_sqmi": 945.0,
      "alt_ft": 1949.93,
      "huc_cd": "06010105",
      "state_cd": "37"
    },
    {
      "id": "02177000",
      "name": "CHATTOOGA RIVER NEAR CLAYTON, GA",
      "state": "GA",
      "site_no": "02177000",
      "lat": 34.81377778,
      "lon": -83.3063611,
      "drain_area_sqmi": 207.0,
      "alt_ft": 1165.5,
      "huc_cd": "03060102",
      "state_cd": "45"
    },
    {
      "id": "02338660",
      "name": "NEW RIVER AT GA 100, NEAR CORINTH, GA",
      "state": "GA",
      "site_no": "02338660",
      "lat": 33.2357222,
      "lon": -84.9875556,
      "drain_area_sqmi": 127.0,
      "alt_ft": 634.81,
      "huc_cd": "03130002",
      "state_cd": "13"
    },
    {
      "id": "15087700",
      "name": "INDIAN R AT SITKA AK",
      "state": "AK",
      "site_no": "15087700",
      "lat": 57.05316268,
      "lon": -135.3162609,
      "drain_area_sqmi": 12.1,
      "alt_ft": -0.6,
      "huc_cd": "19010212",
      "state_cd": "02"
    },
    {
      "id": "15275100",
      "name": "CHESTER C AT ARCTIC BOULEVARD AT ANCHORAGE AK",
      "state": "AK",
      "site_no": "15275100",
      "lat": 61.205278,
      "lon": -149.895278,
      "drain_area_sqmi": 29.5,
      "alt_ft": 22.9,
      "huc_cd": "190204010806",
      "state_cd": "02"
    },
    {
      "id": "15266300",
      "name": "KENAI R AT SOLDOTNA AK",
      "state": "AK",
      "site_no": "15266300",
      "lat": 60.4775,
      "lon": -151.079444,
      "drain_area_sqmi": 2020.0,
      "alt_ft": 40.4,
      "huc_cd": "190203021806",
      "state_cd": "02"
    },
    {
      "id": "12035000",
      "name": "SATSOP RIVER NEAR SATSOP, WA",
      "state": "WA",
      "site_no": "12035000",
      "lat": 47.0006512,
      "lon": -123.4948838,
      "drain_area_sqmi": 299.0,
      "alt_ft": 0.0,
      "huc_cd": "17100104",
      "state_cd": "53"
    },
    {
      "id": "12082500",
      "name": "NISQUALLY RIVER NEAR NATIONAL, WA",
      "state": "WA",
      "site_no": "12082500",
      "lat": 46.75260766,
      "lon": -122.0837194,
      "drain_area_sqmi": 133.0,
      "alt_ft": 1450.0,
      "huc_cd": "17110015",
      "state_cd": "53"
    },
    {
      "id": "12089500",
      "name": "NISQUALLY RIVER AT MCKENNA, WA",
      "state": "WA",
      "site_no": "12089500",
      "lat": 46.93340268,
      "lon": -122.5609345,
      "drain_area_sqmi": 517.0,
      "alt_ft": 289.41,
      "huc_cd": "17110015",
      "state_cd": "53"
    },
    {
      "id": "12114500",
      "name": "CEDAR RIVER BELOW BEAR CREEK NEAR CEDAR FALLS, WA",
      "state": "WA",
      "site_no": "12114500",
      "lat": 47.34202406,
      "lon": -121.5489688,
      "drain_area_sqmi": 25.4,
      "alt_ft": 1882.78,
      "huc_cd": "17110012",
      "state_cd": "53"
    },
    {
      "id": "12150800",
      "name": "SNOHOMISH RIVER NEAR MONROE, WA",
      "state": "WA",
      "site_no": "12150800",
      "lat": 47.830932,
      "lon": -122.048459,
      "drain_area_sqmi": 1537.0,
      "alt_ft": 17.05,
      "huc_cd": "17110011",
      "state_cd": "53"
    },
    {
      "id": "12119000",
      "name": "CEDAR RIVER AT RENTON, WA",
      "state": "WA",
      "site_no": "12119000",
      "lat": 47.4825999,
      "lon": -122.2034547,
      "drain_area_sqmi": 184.0,
      "alt_ft": 18.77,
      "huc_cd": "17110012",
      "state_cd": "53"
    },
    {
      "id": "12189500",
      "name": "SAUK RIVER NEAR SAUK, WA",
      "state": "WA",
      "site_no": "12189500",
      "lat": 48.42455859,
      "lon": -121.5684634,
      "drain_area_sqmi": 714.0,
      "alt_ft": 266.0,
      "huc_cd": "17110006",
      "state_cd": "53"
    },
    {
      "id": "12200500",
      "name": "SKAGIT RIVER NEAR MOUNT VERNON, WA",
      "state": "WA",
      "site_no": "12200500",
      "lat": 48.4448278,
      "lon": -122.3354369,
      "drain_area_sqmi": 3093.0,
      "alt_ft": 3.8,
      "huc_cd": "17110007",
      "state_cd": "53"
    },
    {
      "id": "12056500",
      "name": "NF SKOKOMISH R BL STAIRCASE RPDS NR HOODSPORT, WA",
      "state": "WA",
      "site_no": "12056500",
      "lat": 47.51425666,
      "lon": -123.3298868,
      "drain_area_sqmi": 57.2,
      "alt_ft": 762.26,
      "huc_cd": "17110017",
      "state_cd": "53"
    },
    {
      "id": "12041200",
      "name": "HOH RIVER AT US HIGHWAY 101 NEAR FORKS, WA",
      "state": "WA",
      "site_no": "12041200",
      "lat": 47.80674726,
      "lon": -124.2510329,
      "drain_area_sqmi": 253.0,
      "alt_ft": 163.64,
      "huc_cd": "17100101",
      "state_cd": "53"
    },
    {
      "id": "12039500",
      "name": "QUINAULT RIVER AT QUINAULT LAKE, WA",
      "state": "WA",
      "site_no": "12039500",
      "lat": 47.4575863,
      "lon": -123.8893446,
      "drain_area_sqmi": 264.0,
      "alt_ft": 182.05,
      "huc_cd": "17100102",
      "state_cd": "53"
    },
    {
      "id": "12010000",
      "name": "NASELLE RIVER NEAR NASELLE, WA",
      "state": "WA",
      "site_no": "12010000",
      "lat": 46.3739937,
      "lon": -123.743482,
      "drain_area_sqmi": 54.8,
      "alt_ft": 24.31,
      "huc_cd": "17100106",
      "state_cd": "53"
    },
    {
      "id": "14306500",
      "name": "ALSEA RIVER NEAR TIDEWATER, OR",
      "state": "OR",
      "site_no": "14306500",
      "lat": 44.3859538,
      "lon": -123.831778,
      "drain_area_sqmi": 334.0,
      "alt_ft": 48.16,
      "huc_cd": "17100205",
      "state_cd": "41"
    },
    {
      "id": "14210000",
      "name": "CLACKAMAS RIVER AT ESTACADA, OR",
      "state": "OR",
      "site_no": "14210000",
      "lat": 45.29984346,
      "lon": -122.3539746,
      "drain_area_sqmi": 671.0,
      "alt_ft": 286.93,
      "huc_cd": "17090011",
      "state_cd": "41"
    },
    {
      "id": "14201500",
      "name": "BUTTE CREEK AT MONITOR, OR",
      "state": "OR",
      "site_no": "14201500",
      "lat": 45.1015099,
      "lon": -122.7462019,
      "drain_area_sqmi": 58.7,
      "alt_ft": 155.0,
      "huc_cd": "17090009",
      "state_cd": "41"
    },
    {
      "id": "14375100",
      "name": "SUCKER CREEK BLW LITTLE GRAYBACK CK, NR HOLLAND,OR",
      "state": "OR",
      "site_no": "14375100",
      "lat": 42.15956105,
      "lon": -123.4789509,
      "drain_area_sqmi": 83.9,
      "alt_ft": 1713.92,
      "huc_cd": "17100311",
      "state_cd": "41"
    },
    {
      "id": "14308000",
      "name": "SOUTH UMPQUA RIVER AT TILLER, OR",
      "state": "OR",
      "site_no": "14308000",
      "lat": 42.9303985,
      "lon": -122.9483872,
      "drain_area_sqmi": 449.0,
      "alt_ft": 991.8,
      "huc_cd": "17100302",
      "state_cd": "41"
    },
    {
      "id": "14325000",
      "name": "SOUTH FORK COQUILLE RIVER AT POWERS, OR",
      "state": "OR",
      "site_no": "14325000",
      "lat": 42.89149904,
      "lon": -124.070652,
      "drain_area_sqmi": 169.0,
      "alt_ft": 197.42,
      "huc_cd": "17100305",
      "state_cd": "41"
    },
    {
      "id": "14361500",
      "name": "ROGUE RIVER AT GRANTS PASS, OR",
      "state": "OR",
      "site_no": "14361500",
      "lat": 42.43039607,
      "lon": -123.3178365,
      "drain_area_sqmi": 2459.0,
      "alt_ft": 884.28,
      "huc_cd": "17100308",
      "state_cd": "41"
    },
    {
      "id": "14338000",
      "name": "ELK CREEK NEAR TRAIL, OR",
      "state": "OR",
      "site_no": "14338000",
      "lat": 42.6787364,
      "lon": -122.7419867,
      "drain_area_sqmi": 129.0,
      "alt_ft": 1493.91,
      "huc_cd": "17100307",
      "state_cd": "41"
    },
    {
      "id": "14222500",
      "name": "EAST FORK LEWIS RIVER NEAR HEISSON, WA",
      "state": "WA",
      "site_no": "14222500",
      "lat": 45.8367809,
      "lon": -122.4662083,
      "drain_area_sqmi": 125.0,
      "alt_ft": 356.8,
      "huc_cd": "17080002",
      "state_cd": "53"
    },
    {
      "id": "11522500",
      "name": "SALMON R A SOMES BAR CA",
      "state": "CA",
      "site_no": "11522500",
      "lat": 41.37648796,
      "lon": -123.4769615,
      "drain_area_sqmi": 751.0,
      "alt_ft": 486.33,
      "huc_cd": "18010210",
      "state_cd": "06"
    },
    {
      "id": "11525500",
      "name": "TRINITY R A LEWISTON CA",
      "state": "CA",
      "site_no": "11525500",
      "lat": 40.7247222,
      "lon": -122.801111,
      "drain_area_sqmi": 719.0,
      "alt_ft": 1821.45,
      "huc_cd": "18010211",
      "state_cd": "06"
    },
    {
      "id": "11523200",
      "name": "TRINITY R AB COFFEE C NR TRINITY CENTER CA",
      "state": "CA",
      "site_no": "11523200",
      "lat": 41.11122108,
      "lon": -122.7055474,
      "drain_area_sqmi": 149.0,
      "alt_ft": 2540.44,
      "huc_cd": "18010211",
      "state_cd": "06"
    },
    {
      "id": "11532500",
      "name": "SMITH R NR CRESCENT CITY CA",
      "state": "CA",
      "site_no": "11532500",
      "lat": 41.7914769,
      "lon": -124.0761515,
      "drain_area_sqmi": 614.0,
      "alt_ft": 82.75,
      "huc_cd": "18010101",
      "state_cd": "06"
    },
    {
      "id": "11530500",
      "name": "KLAMATH R NR KLAMATH CA",
      "state": "CA",
      "site_no": "11530500",
      "lat": 41.51092575,
      "lon": -123.9794772,
      "drain_area_sqmi": 12100.0,
      "alt_ft": 5.41,
      "huc_cd": "18010209",
      "state_cd": "06"
    },
    {
      "id": "11516530",
      "name": "KLAMATH R BL IRON GATE DAM CA",
      "state": "CA",
      "site_no": "11516530",
      "lat": 41.92788026,
      "lon": -122.4441653,
      "drain_area_sqmi": 4630.0,
      "alt_ft": 2165.56,
      "huc_cd": "18010206",
      "state_cd": "06"
    },
    {
      "id": "11510700",
      "name": "KLAMATH RIVER BLW JOHN C.BOYLE PWRPLNT, NR KENO,OR",
      "state": "OR",
      "site_no": "11510700",
      "lat": 42.0845877,
      "lon": -122.0733453,
      "drain_area_sqmi": 4080.0,
      "alt_ft": 3274.82,
      "huc_cd": "18010206",
      "state_cd": "41"
    },
    {
      "id": "11383500",
      "name": "DEER C NR VINA CA",
      "state": "CA",
      "site_no": "11383500",
      "lat": 40.0140214,
      "lon": -121.9482872,
      "drain_area_sqmi": 208.0,
      "alt_ft": 482.02,
      "huc_cd": "18020157",
      "state_cd": "06"
    },
    {
      "id": "11218400",
      "name": "NF KINGS R BL DINKEY C NR BALCH CAMP CA",
      "state": "CA",
      "site_no": "11218400",
      "lat": 36.87966948,
      "lon": -119.1287268,
      "drain_area_sqmi": 387.0,
      "huc_cd": "18030010",
      "state_cd": "06"
    },
    {
      "id": "11292000",
      "name": "MF STANISLAUS R AT KENNEDY MDWS NR DARDANELLE CA",
      "state": "CA",
      "site_no": "11292000",
      "lat": 38.29741247,
      "lon": -119.7412867,
      "drain_area_sqmi": 47.5,
      "alt_ft": 6326.3,
      "huc_cd": "18040010",
      "state_cd": "06"
    },
    {
      "id": "11289650",
      "name": "TUOLUMNE R BL LAGRANGE DAM NR LAGRANGE CA",
      "state": "CA",
      "site_no": "11289650",
      "lat": 37.66629746,
      "lon": -120.4421023,
      "drain_area_sqmi": 1538.0,
      "alt_ft": 172.6,
      "huc_cd": "18040009",
      "state_cd": "06"
    },
    {
      "id": "11274500",
      "name": "ORESTIMBA C NR NEWMAN CA",
      "state": "CA",
      "site_no": "11274500",
      "lat": 37.3154653,
      "lon": -121.125171,
      "drain_area_sqmi": 134.0,
      "alt_ft": 198.74,
      "huc_cd": "18040002",
      "state_cd": "06"
    },
    {
      "id": "09402500",
      "name": "COLORADO RIVER NEAR GRAND CANYON, AZ",
      "state": "AZ",
      "site_no": "09402500",
      "lat": 36.10137176,
      "lon": -112.0862795,
      "drain_area_sqmi": 141600.0,
      "alt_ft": 2418.7,
      "huc_cd": "15010001",
      "state_cd": "04"
    },
    {
      "id": "09415000",
      "name": "VIRGIN RV AT LITTLEFIELD, AZ",
      "state": "AZ",
      "site_no": "09415000",
      "lat": 36.8916437,
      "lon": -113.9244098,
      "drain_area_sqmi": 5090.0,
      "alt_ft": 1763.68,
      "huc_cd": "15010010",
      "state_cd": "04"
    },
    {
      "id": "09095500",
      "name": "COLORADO RIVER NEAR CAMEO, CO.",
      "state": "CO",
      "site_no": "09095500",
      "lat": 39.2391463,
      "lon": -108.2661946,
      "drain_area_sqmi": 7986.0,
      "alt_ft": 4817.25,
      "huc_cd": "14010005",
      "state_cd": "08"
    },
    {
      "id": "09260000",
      "name": "LITTLE SNAKE RIVER NEAR LILY, CO",
      "state": "CO",
      "site_no": "09260000",
      "lat": 40.54901667,
      "lon": -108.42432222,
      "drain_area_sqmi": 4034.0,
      "alt_ft": 5692.71,
      "huc_cd": "140500031102",
      "state_cd": "08"
    },
    {
      "id": "09255000",
      "name": "SLATER FORK NEAR SLATER, CO",
      "state": "CO",
      "site_no": "09255000",
      "lat": 40.9825,
      "lon": -107.382222,
      "drain_area_sqmi": 151.0,
      "alt_ft": 6571.48,
      "huc_cd": "140500030303",
      "state_cd": "08"
    },
    {
      "id": "09078475",
      "name": "LAST CHANCE CREEK NEAR NORRIE, CO",
      "state": "CO",
      "site_no": "09078475",
      "lat": 39.34388889,
      "lon": -106.6565278,
      "drain_area_sqmi": 12.0,
      "alt_ft": 8548.93,
      "huc_cd": "14010004",
      "state_cd": "08"
    },
    {
      "id": "09109000",
      "name": "TAYLOR RIVER BELOW TAYLOR PARK RESERVOIR, CO.",
      "state": "CO",
      "site_no": "09109000",
      "lat": 38.8183269,
      "lon": -106.6091977,
      "drain_area_sqmi": 254.0,
      "alt_ft": 9172.74,
      "huc_cd": "14020001",
      "state_cd": "08"
    },
    {
      "id": "09147500",
      "name": "UNCOMPAHGRE RIVER AT COLONA, CO",
      "state": "CO",
      "site_no": "09147500",
      "lat": 38.33143056,
      "lon": -107.779225,
      "drain_area_sqmi": 448.0,
      "alt_ft": 6320.37,
      "huc_cd": "14020006",
      "state_cd": "08"
    },
    {
      "id": "09163500",
      "name": "COLORADO RIVER NEAR COLORADO-UTAH STATE LINE",
      "state": "CO",
      "site_no": "09163500",
      "lat": 39.1327434,
      "lon": -109.02707585,
      "drain_area_sqmi": 17849.0,
      "alt_ft": 4336.57,
      "huc_cd": "140100051906",
      "state_cd": "08"
    },
    {
      "id": "09180500",
      "name": "COLORADO RIVER NEAR CISCO, UT",
      "state": "UT",
      "site_no": "09180500",
      "lat": 38.81054095,
      "lon": -109.2934493,
      "drain_area_sqmi": 24100.0,
      "alt_ft": 4092.35,
      "huc_cd": "14030005",
      "state_cd": "49"
    },
    {
      "id": "09196500",
      "name": "PINE CREEK ABOVE FREMONT LAKE, WY",
      "state": "WY",
      "site_no": "09196500",
      "lat": 43.02705556,
      "lon": -109.7735278,
      "drain_area_sqmi": 76.3,
      "alt_ft": 7450.0,
      "huc_cd": "14040102",
      "state_cd": "56"
    },
    {
      "id": "06224000",
      "name": "BULL LAKE CREEK ABOVE BULL LAKE, WY",
      "state": "WY",
      "site_no": "06224000",
      "lat": 43.1766111,
      "lon": -109.2025556,
      "drain_area_sqmi": 187.0,
      "alt_ft": 5874.0,
      "huc_cd": "10080001",
      "state_cd": "56"
    },
    {
      "id": "06221400",
      "name": "DINWOODY CREEK ABOVE LAKES, NEAR BURRIS, WY",
      "state": "WY",
      "site_no": "06221400",
      "lat": 43.34616667,
      "lon": -109.4087778,
      "drain_area_sqmi": 87.9,
      "alt_ft": 6500.0,
      "huc_cd": "10080001",
      "state_cd": "56"
    },
    {
      "id": "06218500",
      "name": "WIND RIVER NEAR DUBOIS, WY",
      "state": "WY",
      "site_no": "06218500",
      "lat": 43.57856415,
      "lon": -109.7598835,
      "drain_area_sqmi": 230.0,
      "alt_ft": 7188.71,
      "huc_cd": "10080001",
      "state_cd": "56"
    },
    {
      "id": "13342500",
      "name": "CLEARWATER RIVER AT SPALDING ID",
      "state": "ID",
      "site_no": "13342500",
      "lat": 46.4483333,
      "lon": -116.8275,
      "drain_area_sqmi": 9283.0,
      "alt_ft": 773.63,
      "huc_cd": "17060306",
      "state_cd": "16"
    },
    {
      "id": "13302005",
      "name": "PAHSIMEROI RIVER AT ELLIS ID",
      "state": "ID",
      "site_no": "13302005",
      "lat": 44.69166667,
      "lon": -114.0469444,
      "drain_area_sqmi": 830.0,
      "alt_ft": 4638.84,
      "huc_cd": "17060202",
      "state_cd": "16"
    },
    {
      "id": "13266000",
      "name": "WEISER RIVER NR WEISER ID",
      "state": "ID",
      "site_no": "13266000",
      "lat": 44.27,
      "lon": -116.7722222,
      "drain_area_sqmi": 1450.0,
      "alt_ft": 2208.9,
      "huc_cd": "17050124",
      "state_cd": "16"
    },
    {
      "id": "13235000",
      "name": "SOUTH FORK PAYETTE RIVER AT LOWMAN, ID",
      "state": "ID",
      "site_no": "13235000",
      "lat": 44.08527778,
      "lon": -115.6222222,
      "drain_area_sqmi": 446.0,
      "alt_ft": 3770.0,
      "huc_cd": "17050120",
      "state_cd": "16"
    },
    {
      "id": "13206000",
      "name": "BOISE RIVER AT GLENWOOD BRIDGE NR BOISE ID",
      "state": "ID",
      "site_no": "13206000",
      "lat": 43.66055556,
      "lon": -116.2791667,
      "drain_area_sqmi": 2773.0,
      "alt_ft": 2603.02,
      "huc_cd": "17050114",
      "state_cd": "16"
    },
    {
      "id": "13139510",
      "name": "BIG WOOD RIVER AT HAILEY ID TOTAL FLOW",
      "state": "ID",
      "site_no": "13139510",
      "lat": 43.5172222,
      "lon": -114.3216667,
      "drain_area_sqmi": 614.0,
      "alt_ft": 5298.73,
      "huc_cd": "17040219",
      "state_cd": "16"
    },
    {
      "id": "13297380",
      "name": "SALMON RIVER AB EAST FORK NR CLAYTON ID",
      "state": "ID",
      "site_no": "13297380",
      "lat": 44.26664167,
      "lon": -114.3267583,
      "drain_area_sqmi": 1200.0,
      "alt_ft": 5326.19,
      "huc_cd": "17060201",
      "state_cd": "16"
    },
    {
      "id": "13295000",
      "name": "VALLEY CREEK AT STANLEY ID",
      "state": "ID",
      "site_no": "13295000",
      "lat": 44.2225,
      "lon": -114.931111,
      "drain_area_sqmi": 147.0,
      "alt_ft": 6221.81,
      "huc_cd": "17060201",
      "state_cd": "16"
    },
    {
      "id": "06061500",
      "name": "Prickly Pear Creek near Clancy MT",
      "state": "MT",
      "site_no": "06061500",
      "lat": 46.5190972,
      "lon": -111.946786,
      "drain_area_sqmi": 192.0,
      "alt_ft": 4070.3,
      "huc_cd": "10030101",
      "state_cd": "30"
    },
    {
      "id": "06054500",
      "name": "Missouri River at Toston MT",
      "state": "MT",
      "site_no": "06054500",
      "lat": 46.1465722,
      "lon": -111.4202778,
      "drain_area_sqmi": 14641.0,
      "alt_ft": 3905.68,
      "huc_cd": "10030101",
      "state_cd": "30"
    },
    {
      "id": "06036650",
      "name": "Jefferson River near Three Forks MT",
      "state": "MT",
      "site_no": "06036650",
      "lat": 45.8971361,
      "lon": -111.5956722,
      "drain_area_sqmi": 9558.0,
      "alt_ft": 4079.5,
      "huc_cd": "10020005",
      "state_cd": "30"
    },
    {
      "id": "06080900",
      "name": "Sun River bl Diversion Dam nr Augusta MT",
      "state": "MT",
      "site_no": "06080900",
      "lat": 47.61850556,
      "lon": -112.6920556,
      "drain_area_sqmi": 610.0,
      "alt_ft": 4363.27,
      "huc_cd": "10030104",
      "state_cd": "30"
    },
    {
      "id": "03065000",
      "name": "DRY FORK AT HENDRICKS, WV",
      "state": "WV",
      "site_no": "03065000",
      "lat": 39.07232928,
      "lon": -79.6228373,
      "drain_area_sqmi": 347.0,
      "alt_ft": 1699.13,
      "huc_cd": "05020004",
      "state_cd": "54"
    },
    {
      "id": "03198350",
      "name": "CLEAR FORK AT WHITESVILLE, WV",
      "state": "WV",
      "site_no": "03198350",
      "lat": 37.9662186,
      "lon": -81.524278,
      "drain_area_sqmi": 63.3,
      "alt_ft": 818.49,
      "huc_cd": "05050009",
      "state_cd": "54"
    },
    {
      "id": "03183500",
      "name": "GREENBRIER RIVER AT ALDERSON, WV",
      "state": "WV",
      "site_no": "03183500",
      "lat": 37.7242874,
      "lon": -80.641468,
      "drain_area_sqmi": 1328.0,
      "alt_ft": 1529.0,
      "huc_cd": "05050003",
      "state_cd": "54"
    },
    {
      "id": "03066000",
      "name": "BLACKWATER RIVER AT DAVIS, WV",
      "state": "WV",
      "site_no": "03066000",
      "lat": 39.1270524,
      "lon": -79.4683852,
      "drain_area_sqmi": 86.1,
      "alt_ft": 3059.3,
      "huc_cd": "05020004",
      "state_cd": "54"
    },
    {
      "id": "03050000",
      "name": "TYGART VALLEY RIVER NEAR DAILEY, WV",
      "state": "WV",
      "site_no": "03050000",
      "lat": 38.809275,
      "lon": -79.8817342,
      "drain_area_sqmi": 188.0,
      "alt_ft": 1940.53,
      "huc_cd": "05020001",
      "state_cd": "54"
    },
    {
      "id": "03062500",
      "name": "DECKERS CREEK AT MORGANTOWN, WV",
      "state": "WV",
      "site_no": "03062500",
      "lat": 39.62924826,
      "lon": -79.9525633,
      "drain_area_sqmi": 63.0,
      "alt_ft": 804.96,
      "huc_cd": "05020003",
      "state_cd": "54"
    },
    {
      "id": "03540500",
      "name": "EMORY RIVER AT OAKDALE, TN",
      "state": "TN",
      "site_no": "03540500",
      "lat": 35.9831307,
      "lon": -84.557992,
      "drain_area_sqmi": 764.0,
      "alt_ft": 760.98,
      "huc_cd": "06010208",
      "state_cd": "47"
    },
    {
      "id": "03531500",
      "name": "POWELL RIVER NEAR JONESVILLE, VA",
      "state": "VA",
      "site_no": "03531500",
      "lat": 36.66203367,
      "lon": -83.0948928,
      "drain_area_sqmi": 319.0,
      "alt_ft": 1258.8,
      "huc_cd": "06010206",
      "state_cd": "51"
    },
    {
      "id": "03532000",
      "name": "POWELL RIVER NEAR ARTHUR, TN",
      "state": "TN",
      "site_no": "03532000",
      "lat": 36.5425219,
      "lon": -83.6300294,
      "drain_area_sqmi": 685.0,
      "alt_ft": 1043.24,
      "huc_cd": "06010206",
      "state_cd": "47"
    },
    {
      "id": "03220000",
      "name": "Mill Creek near Bellepoint OH",
      "state": "OH",
      "site_no": "03220000",
      "lat": 40.24839457,
      "lon": -83.1738026,
      "drain_area_sqmi": 178.0,
      "alt_ft": 864.24,
      "huc_cd": "05060001",
      "state_cd": "39"
    },
    {
      "id": "03471500",
      "name": "S F HOLSTON RIVER AT RIVERSIDE, NEAR CHILHOWIE, VA",
      "state": "VA",
      "site_no": "03471500",
      "lat": 36.7603931,
      "lon": -81.63122929,
      "drain_area_sqmi": 76.6,
      "alt_ft": 2106.71,
      "huc_cd": "06010102",
      "state_cd": "51"
    },
    {
      "id": "03450000",
      "name": "BEETREE CREEK NEAR SWANNANOA, NC",
      "state": "NC",
      "site_no": "03450000",
      "lat": 35.65305556,
      "lon": -82.4052778,
      "drain_area_sqmi": 5.46,
      "alt_ft": 2693.13,
      "huc_cd": "06010105",
      "state_cd": "37"
    },
    {
      "id": "03455500",
      "name": "W F PIGEON R ABOVE LAKE LOGAN NR HAZELWOOD, NC",
      "state": "NC",
      "site_no": "03455500",
      "lat": 35.3961111,
      "lon": -82.9375,
      "drain_area_sqmi": 27.6,
      "alt_ft": 2976.24,
      "huc_cd": "06010106",
      "state_cd": "37"
    },
    {
      "id": "02116500",
      "name": "YADKIN RIVER AT YADKIN COLLEGE, NC",
      "state": "NC",
      "site_no": "02116500",
      "lat": 35.85666667,
      "lon": -80.3869444,
      "drain_area_sqmi": 2280.0,
      "alt_ft": 637.85,
      "huc_cd": "03040101",
      "state_cd": "37"
    },
    {
      "id": "03441000",
      "name": "DAVIDSON RIVER NEAR BREVARD, NC",
      "state": "NC",
      "site_no": "03441000",
      "lat": 35.27305556,
      "lon": -82.7058333,
      "drain_area_sqmi": 40.4,
      "alt_ft": 2115.24,
      "huc_cd": "06010105",
      "state_cd": "37"
    },
    {
      "id": "02153551",
      "name": "BROAD RIVER BELOW NINETYNINE ISLAND RESERVOIR, SC",
      "state": "SC",
      "site_no": "02153551",
      "lat": 35.0312419,
      "lon": -81.492591,
      "drain_area_sqmi": 1550.0,
      "alt_ft": 410.58,
      "huc_cd": "03050105",
      "state_cd": "45"
    },
    {
      "id": "03161000",
      "name": "SOUTH FORK NEW RIVER NEAR JEFFERSON, NC",
      "state": "NC",
      "site_no": "03161000",
      "lat": 36.3933333,
      "lon": -81.4069444,
      "drain_area_sqmi": 205.0,
      "alt_ft": 2656.8,
      "huc_cd": "05050001",
      "state_cd": "37"
    },
    {
      "id": "03164000",
      "name": "NEW RIVER NEAR GALAX, VA",
      "state": "VA",
      "site_no": "03164000",
      "lat": 36.6473497,
      "lon": -80.978969,
      "drain_area_sqmi": 1141.0,
      "alt_ft": 2207.06,
      "huc_cd": "05050001",
      "state_cd": "51"
    },
    {
      "id": "03168000",
      "name": "NEW RIVER AT ALLISONIA, VA",
      "state": "VA",
      "site_no": "03168000",
      "lat": 36.93762235,
      "lon": -80.7456257,
      "drain_area_sqmi": 2212.0,
      "alt_ft": 1848.16,
      "huc_cd": "05050001",
      "state_cd": "51"
    },
    {
      "id": "02192500",
      "name": "LITTLE RIVER NEAR MT. CARMEL, SC",
      "state": "SC",
      "site_no": "02192500",
      "lat": 34.07244444,
      "lon": -82.5009167,
      "drain_area_sqmi": 217.0,
      "alt_ft": 354.51,
      "huc_cd": "03060103",
      "state_cd": "45"
    },
    {
      "id": "02338500",
      "name": "CHATTAHOOCHEE RIVER AT GA 100, AT FRANKLIN, GA",
      "state": "GA",
      "site_no": "02338500",
      "lat": 33.2779722,
      "lon": -85.1009167,
      "drain_area_sqmi": 2680.0,
      "alt_ft": 664.88,
      "huc_cd": "03130002",
      "state_cd": "13"
    },
    {
      "id": "01421000",
      "name": "EAST BRANCH DELAWARE RIVER AT FISHS EDDY NY",
      "state": "NY",
      "site_no": "01421000",
      "lat": 41.97327778,
      "lon": -75.1747222,
      "drain_area_sqmi": 784.0,
      "alt_ft": 955.47,
      "huc_cd": "02040102",
      "state_cd": "36"
    },
    {
      "id": "01500500",
      "name": "SUSQUEHANNA RIVER AT UNADILLA NY",
      "state": "NY",
      "site_no": "01500500",
      "lat": 42.3215,
      "lon": -75.31638889,
      "drain_area_sqmi": 982.0,
      "alt_ft": 995.71,
      "huc_cd": "02050101",
      "state_cd": "36"
    },
    {
      "id": "01540500",
      "name": "Susquehanna River at Danville, PA",
      "state": "PA",
      "site_no": "01540500",
      "lat": 40.95814218,
      "lon": -76.6191222,
      "drain_area_sqmi": 11220.0,
      "alt_ft": 430.54,
      "huc_cd": "02050107",
      "state_cd": "42"
    },
    {
      "id": "01554000",
      "name": "Susquehanna River at Sunbury, PA",
      "state": "PA",
      "site_no": "01554000",
      "lat": 40.8345293,
      "lon": -76.8266349,
      "drain_area_sqmi": 18300.0,
      "alt_ft": 407.9,
      "huc_cd": "02050301",
      "state_cd": "42"
    },
    {
      "id": "01570500",
      "name": "Susquehanna River at Harrisburg, PA",
      "state": "PA",
      "site_no": "01570500",
      "lat": 40.25473717,
      "lon": -76.8860538,
      "drain_area_sqmi": 24100.0,
      "alt_ft": 289.34,
      "huc_cd": "02050305",
      "state_cd": "42"
    },
    {
      "id": "01632000",
      "name": "N F SHENANDOAH RIVER AT COOTES STORE, VA",
      "state": "VA",
      "site_no": "01632000",
      "lat": 38.63706254,
      "lon": -78.852803,
      "drain_area_sqmi": 210.0,
      "alt_ft": 1050.79,
      "huc_cd": "02070006",
      "state_cd": "51"
    },
    {
      "id": "01646500",
      "name": "POTOMAC RIVER NEAR WASH, DC LITTLE FALLS PUMP STA",
      "state": "MD",
      "site_no": "01646500",
      "lat": 38.94977778,
      "lon": -77.12763889,
      "drain_area_sqmi": 11560.0,
      "alt_ft": 37.04,
      "huc_cd": "020700081005",
      "state_cd": "24"
    },
    {
      "id": "08158000",
      "name": "Colorado Rv at Austin, TX",
      "state": "TX",
      "site_no": "08158000",
      "lat": 30.24613889,
      "lon": -97.6800556,
      "drain_area_sqmi": 39009.0,
      "alt_ft": 391.96,
      "huc_cd": "12090205",
      "state_cd": "48"
    },
    {
      "id": "08167000",
      "name": "Guadalupe Rv at Comfort, TX",
      "state": "TX",
      "site_no": "08167000",
      "lat": 29.96523889,
      "lon": -98.8971667,
      "drain_area_sqmi": 839.0,
      "huc_cd": "12100201",
      "state_cd": "48"
    },
    {
      "id": "08167500",
      "name": "Guadalupe Rv nr Spring Branch, TX",
      "state": "TX",
      "site_no": "08167500",
      "lat": 29.8604957,
      "lon": -98.3836275,
      "drain_area_sqmi": 1315.0,
      "alt_ft": 948.43,
      "huc_cd": "12100201",
      "state_cd": "48"
    },
    {
      "id": "08176500",
      "name": "Guadalupe Rv at Victoria, TX",
      "state": "TX",
      "site_no": "08176500",
      "lat": 28.7930456,
      "lon": -97.0130429,
      "drain_area_sqmi": 5198.0,
      "alt_ft": 28.81,
      "huc_cd": "12100204",
      "state_cd": "48"
    },
    {
      "id": "08151500",
      "name": "Llano Rv at Llano, TX",
      "state": "TX",
      "site_no": "08151500",
      "lat": 30.7513041,
      "lon": -98.6697773,
      "drain_area_sqmi": 4197.0,
      "alt_ft": 970.08,
      "huc_cd": "12090204",
      "state_cd": "48"
    },
    {
      "id": "08134000",
      "name": "N Concho Rv nr Carlsbad, TX",
      "state": "TX",
      "site_no": "08134000",
      "lat": 31.5926549,
      "lon": -100.6370449,
      "drain_area_sqmi": 1266.0,
      "alt_ft": 1968.43,
      "huc_cd": "12090104",
      "state_cd": "48"
    },
    {
      "id": "08171000",
      "name": "Blanco Rv at Wimberley, TX",
      "state": "TX",
      "site_no": "08171000",
      "lat": 29.99438343,
      "lon": -98.088925,
      "drain_area_sqmi": 355.0,
      "alt_ft": 797.4,
      "huc_cd": "12100203",
      "state_cd": "48"
    },
    {
      "id": "08178880",
      "name": "Medina Rv at Bandera, TX",
      "state": "TX",
      "site_no": "08178880",
      "lat": 29.72383537,
      "lon": -99.070035,
      "drain_area_sqmi": 328.0,
      "alt_ft": 1189.73,
      "huc_cd": "12100302",
      "state_cd": "48"
    },
    {
      "id": "05389000",
      "name": "Yellow River near Ion, IA",
      "state": "IA",
      "site_no": "05389000",
      "lat": 43.11191667,
      "lon": -91.2651389,
      "drain_area_sqmi": 221.0,
      "alt_ft": 660.24,
      "huc_cd": "07060001",
      "state_cd": "19"
    },
    {
      "id": "05407000",
      "name": "WISCONSIN RIVER AT MUSCODA, WI",
      "state": "WI",
      "site_no": "05407000",
      "lat": 43.19805556,
      "lon": -90.4433333,
      "drain_area_sqmi": 10400.0,
      "alt_ft": 666.68,
      "huc_cd": "07070005",
      "state_cd": "55"
    },
    {
      "id": "05399500",
      "name": "BIG EAU PLEINE RIVER AT STRATFORD, WI",
      "state": "WI",
      "site_no": "05399500",
      "lat": 44.8219098,
      "lon": -90.0795754,
      "drain_area_sqmi": 224.0,
      "alt_ft": 1154.38,
      "huc_cd": "07070002",
      "state_cd": "55"
    },
    {
      "id": "05543500",
      "name": "ILLINOIS RIVER AT MARSEILLES, IL",
      "state": "IL",
      "site_no": "05543500",
      "lat": 41.327,
      "lon": -88.7170833,
      "drain_area_sqmi": 8259.0,
      "alt_ft": 452.77,
      "huc_cd": "07120005",
      "state_cd": "17"
    },
    {
      "id": "04085427",
      "name": "MANITOWOC RIVER AT MANITOWOC, WI",
      "state": "WI",
      "site_no": "04085427",
      "lat": 44.10616667,
      "lon": -87.7160278,
      "drain_area_sqmi": 526.0,
      "alt_ft": 590.1,
      "huc_cd": "04030101",
      "state_cd": "55"
    },
    {
      "id": "04059500",
      "name": "FORD RIVER NEAR HYDE, MI",
      "state": "MI",
      "site_no": "04059500",
      "lat": 45.7549674,
      "lon": -87.2020793,
      "drain_area_sqmi": 450.0,
      "alt_ft": 681.71,
      "huc_cd": "04030109",
      "state_cd": "26"
    },
    {
      "id": "04031000",
      "name": "BLACK RIVER NEAR BESSEMER, MI",
      "state": "MI",
      "site_no": "04031000",
      "lat": 46.5113361,
      "lon": -90.0746179,
      "drain_area_sqmi": 200.0,
      "alt_ft": 1154.23,
      "huc_cd": "04020101",
      "state_cd": "26"
    },
    {
      "id": "04074950",
      "name": "WOLF RIVER AT LANGLADE, WI",
      "state": "WI",
      "site_no": "04074950",
      "lat": 45.18997026,
      "lon": -88.7334398,
      "drain_area_sqmi": 463.0,
      "alt_ft": 1238.05,
      "huc_cd": "04030202",
      "state_cd": "55"
    },
    {
      "id": "05418500",
      "name": "Maquoketa River near Maquoketa, IA",
      "state": "IA",
      "site_no": "05418500",
      "lat": 42.08335278,
      "lon": -90.6329167,
      "drain_area_sqmi": 1553.0,
      "alt_ft": 625.63,
      "huc_cd": "07060006",
      "state_cd": "19"
    },
    {
      "id": "01142500",
      "name": "AYERS BROOK AT RANDOLPH, VT",
      "state": "VT",
      "site_no": "01142500",
      "lat": 43.93450969,
      "lon": -72.6578821,
      "drain_area_sqmi": 30.5,
      "alt_ft": 630.13,
      "huc_cd": "01080105",
      "state_cd": "50"
    },
    {
      "id": "01130000",
      "name": "UPPER AMMONOOSUC RIVER NEAR GROVETON, NH",
      "state": "NH",
      "site_no": "01130000",
      "lat": 44.62505316,
      "lon": -71.4689721,
      "drain_area_sqmi": 232.0,
      "alt_ft": 916.43,
      "huc_cd": "01080101",
      "state_cd": "33"
    },
    {
      "id": "01131500",
      "name": "CONNECTICUT RIVER NEAR DALTON, NH",
      "state": "NH",
      "site_no": "01131500",
      "lat": 44.4100591,
      "lon": -71.7206438,
      "drain_area_sqmi": 1514.0,
      "alt_ft": 799.44,
      "huc_cd": "01080101",
      "state_cd": "33"
    },
    {
      "id": "01138500",
      "name": "CONNECTICUT RIVER AT WELLS RIVER, VT",
      "state": "VT",
      "site_no": "01138500",
      "lat": 44.15339689,
      "lon": -72.0417577,
      "drain_area_sqmi": 2644.0,
      "alt_ft": 399.37,
      "huc_cd": "01080101",
      "state_cd": "50"
    },
    {
      "id": "01144000",
      "name": "WHITE RIVER AT WEST HARTFORD, VT",
      "state": "VT",
      "site_no": "01144000",
      "lat": 43.71423614,
      "lon": -72.418149,
      "drain_area_sqmi": 690.0,
      "alt_ft": 374.32,
      "huc_cd": "01080105",
      "state_cd": "50"
    },
    {
      "id": "01154500",
      "name": "CONNECTICUT RIVER AT NORTH WALPOLE, NH",
      "state": "NH",
      "site_no": "01154500",
      "lat": 43.12618905,
      "lon": -72.4367549,
      "drain_area_sqmi": 5493.0,
      "alt_ft": 217.53,
      "huc_cd": "01080104",
      "state_cd": "33"
    },
    {
      "id": "01170500",
      "name": "CONNECTICUT RIVER AT MONTAGUE CITY, MA",
      "state": "MA",
      "site_no": "01170500",
      "lat": 42.5802222,
      "lon": -72.5745,
      "drain_area_sqmi": 7860.0,
      "alt_ft": 99.32,
      "huc_cd": "01080201",
      "state_cd": "25"
    },
    {
      "id": "01161000",
      "name": "ASHUELOT RIVER AT HINSDALE, NH",
      "state": "NH",
      "site_no": "01161000",
      "lat": 42.78591586,
      "lon": -72.4861996,
      "drain_area_sqmi": 420.0,
      "alt_ft": 200.84,
      "huc_cd": "01080201",
      "state_cd": "33"
    },
    {
      "id": "01073000",
      "name": "OYSTER RIVER NEAR DURHAM, NH",
      "state": "NH",
      "site_no": "01073000",
      "lat": 43.1486955,
      "lon": -70.9650603,
      "drain_area_sqmi": 12.1,
      "alt_ft": 64.58,
      "huc_cd": "01060003",
      "state_cd": "33"
    },
    {
      "id": "07010000",
      "name": "Mississippi River at St. Louis, MO",
      "state": "MO",
      "lat": 38.629,
      "lon": -90.1797778,
      "drain_area_sqmi": 697000.0,
      "site_no": "07010000"
    },
    {
      "id": "05378500",
      "name": "MISSISSIPPI RIVER AT WINONA, MN",
      "state": "MN",
      "lat": 44.05571,
      "lon": -91.637823,
      "drain_area_sqmi": 59200.0,
      "site_no": "05378500"
    },
    {
      "id": "07194500",
      "name": "Arkansas River near Muskogee, OK",
      "state": "OK",
      "lat": 35.7695432,
      "lon": -95.2971867,
      "drain_area_sqmi": 96472.0,
      "site_no": "07194500"
    },
    {
      "id": "03381700",
      "name": "OHIO RIVER AT OLD SHAWNEETOWN, IL-KY",
      "state": "KY",
      "lat": 37.6925,
      "lon": -88.1347222,
      "drain_area_sqmi": 141000.0,
      "site_no": "03381700"
    },
    {
      "id": "06342500",
      "name": "MISSOURI RIVER AT BISMARCK, ND",
      "state": "ND",
      "lat": 46.81416667,
      "lon": -100.8213889,
      "drain_area_sqmi": 186400.0,
      "site_no": "06342500"
    },
    {
      "id": "07263450",
      "name": "Arkansas River at Murray Dam near Little Rock, AR",
      "state": "AR",
      "lat": 34.79305556,
      "lon": -92.3583333,
      "drain_area_sqmi": 158138.0,
      "site_no": "07263450"
    },
    {
      "id": "07289000",
      "name": "MISSISSIPPI RIVER AT VICKSBURG, MS",
      "state": "MS",
      "lat": 32.315,
      "lon": -90.9058333,
      "drain_area_sqmi": 1144500.0,
      "site_no": "07289000"
    },
    {
      "id": "06813500",
      "name": "Missouri River at Rulo, NE",
      "state": "NE",
      "lat": 40.05205556,
      "lon": -95.42175,
      "drain_area_sqmi": 414900.0,
      "site_no": "06813500"
    },
    {
      "id": "07374525",
      "name": "Mississippi River at Belle Chasse, LA",
      "state": "LA",
      "lat": 29.85715084,
      "lon": -89.977847,
      "drain_area_sqmi": 1130000.0,
      "site_no": "07374525"
    },
    {
      "id": "01184000",
      "name": "CONNECTICUT RIVER AT THOMPSONVILLE, CT",
      "state": "CT",
      "lat": 41.98720462,
      "lon": -72.60534826,
      "drain_area_sqmi": 9660.0,
      "site_no": "01184000"
    },
    {
      "id": "01113895",
      "name": "BLACKSTONE R AT ROOSEVELT ST AT PAWTUCKET RI",
      "state": "RI",
      "lat": 41.8884331,
      "lon": -71.38144467,
      "drain_area_sqmi": 474.0,
      "site_no": "01113895"
    },
    {
      "id": "01481500",
      "name": "BRANDYWINE CREEK AT WILMINGTON, DE",
      "state": "DE",
      "lat": 39.7695,
      "lon": -75.5766944,
      "drain_area_sqmi": 314.0,
      "site_no": "01481500"
    },
    {
      "id": "01648010",
      "name": "ROCK CREEK AT JOYCE RD WASHINGTON, DC",
      "state": "DC",
      "lat": 38.96016667,
      "lon": -77.04205556,
      "drain_area_sqmi": 63.7,
      "site_no": "01648010"
    },
    {
      "id": "03216070",
      "name": "OHIO RIVER AT IRONTON, OH",
      "state": "OH",
      "lat": 38.53205556,
      "lon": -82.68594444,
      "drain_area_sqmi": 60825.0,
      "site_no": "03216070"
    },
    {
      "id": "02359170",
      "name": "APALACHICOLA RIVER NR SUMATRA,FLA.",
      "state": "FL",
      "lat": 29.94937094,
      "lon": -85.0154686,
      "drain_area_sqmi": 19200.0,
      "site_no": "02359170"
    },
    {
      "id": "06892518",
      "name": "KANSAS R NR LAKE QUIVIRA, KS",
      "state": "KS",
      "lat": 39.0461111,
      "lon": -94.7894444,
      "drain_area_sqmi": 59985.0,
      "site_no": "06892518"
    },
    {
      "id": "07022000",
      "name": "Mississippi River at Thebes, IL",
      "state": "IL",
      "lat": 37.22025,
      "lon": -89.4631667,
      "drain_area_sqmi": 713200.0,
      "site_no": "07022000"
    },
    {
      "id": "03303280",
      "name": "OHIO RIVER AT CANNELTON DAM AT CANNELTON, IN",
      "state": "IN",
      "lat": 37.89950088,
      "lon": -86.70554179,
      "drain_area_sqmi": 97000.0,
      "site_no": "03303280"
    },
    {
      "id": "01578310",
      "name": "SUSQUEHANNA RIVER AT CONOWINGO, MD",
      "state": "MD",
      "lat": 39.65788889,
      "lon": -76.17444444,
      "drain_area_sqmi": 27100.0,
      "site_no": "01578310"
    },
    {
      "id": "01463500",
      "name": "Delaware River at Trenton NJ",
      "state": "NJ",
      "lat": 40.22166667,
      "lon": -74.77805556,
      "drain_area_sqmi": 6780.0,
      "site_no": "01463500"
    },
    {
      "id": "04165710",
      "name": "DETROIT RIVER AT FORT WAYNE AT DETROIT, MI",
      "state": "MI",
      "lat": 42.2980939,
      "lon": -83.0926997,
      "drain_area_sqmi": 228800.0,
      "site_no": "04165710"
    },
    {
      "id": "06601200",
      "name": "Missouri River at Decatur, NE",
      "state": "IA",
      "lat": 42.0078333,
      "lon": -96.2429167,
      "drain_area_sqmi": 316200.0,
      "site_no": "06601200"
    },
    {
      "id": "08361000",
      "name": "RIO GRANDE BELOW ELEPHANT BUTTE DAM, NM",
      "state": "NM",
      "lat": 33.1485111,
      "lon": -107.2067833,
      "drain_area_sqmi": 29450.0,
      "site_no": "08361000"
    },
    {
      "id": "07032000",
      "name": "MISSISSIPPI RIVER AT MEMPHIS, TN",
      "state": "TN",
      "lat": 35.12314616,
      "lon": -90.077592,
      "drain_area_sqmi": 932800.0,
      "site_no": "07032000"
    },
    {
      "id": "02171645",
      "name": "REDIV CANAL AT SANTEE RIVER NR ST STEPHEN, SC",
      "state": "SC",
      "lat": 33.4275,
      "lon": -79.915,
      "drain_area_sqmi": 14800.0,
      "site_no": "02171645"
    },
    {
      "id": "01172010",
      "name": "CONNECTICUT R AT I-391 BRIDGE AT HOLYOKE, MA",
      "state": "MA",
      "lat": 42.19146944,
      "lon": -72.60931111,
      "drain_area_sqmi": 8332.0,
      "site_no": "01172010"
    },
    {
      "id": "04264331",
      "name": "ST. LAWRENCE R AT CORNWALL ONT NR MASSENA NY",
      "state": "NY",
      "lat": 45.0061111,
      "lon": -74.795,
      "drain_area_sqmi": 298800.0,
      "site_no": "04264331"
    },
    {
      "id": "09421500",
      "name": "COLORADO RV BLW HOOVER DAM, AZ-NV",
      "state": "NV",
      "lat": 36.01525847,
      "lon": -114.7385936,
      "drain_area_sqmi": 171700.0,
      "site_no": "09421500"
    },
    {
      "id": "04290500",
      "name": "WINOOSKI RIVER NEAR ESSEX JUNCTION, VT",
      "state": "VT",
      "lat": 44.47893867,
      "lon": -73.1387381,
      "drain_area_sqmi": 1044.0,
      "site_no": "04290500"
    },
    {
      "id": "01576000",
      "name": "Susquehanna River at Marietta, PA",
      "state": "PA",
      "lat": 40.0545413,
      "lon": -76.5307992,
      "drain_area_sqmi": 25990.0,
      "site_no": "01576000"
    },
    {
      "id": "02226160",
      "name": "ALTAMAHA RIVER NEAR EVERETT CITY, GA",
      "state": "GA",
      "lat": 31.4268611,
      "lon": -81.6051111,
      "drain_area_sqmi": 14000.0,
      "site_no": "02226160"
    },
    {
      "id": "05344500",
      "name": "MISSISSIPPI RIVER AT PRESCOTT, WI",
      "state": "WI",
      "lat": 44.747085,
      "lon": -92.802152,
      "drain_area_sqmi": 44800.0,
      "site_no": "05344500"
    },
    {
      "id": "01144500",
      "name": "CONNECTICUT RIVER AT WEST LEBANON, NH",
      "state": "NH",
      "lat": 43.64618187,
      "lon": -72.3123134,
      "drain_area_sqmi": 4092.0,
      "site_no": "01144500"
    },
    {
      "id": "09522000",
      "name": "COLORADO RIVER AT NIB, ABOVE MORELOS DAM, AZ",
      "state": "AZ",
      "lat": 32.7186587,
      "lon": -114.7188444,
      "drain_area_sqmi": 246700.0,
      "site_no": "09522000"
    },
    {
      "id": "09328960",
      "name": "COLORADO RIVER AT GYPSUM CANYON NEAR HITE, UT",
      "state": "UT",
      "lat": 38.01001944,
      "lon": -110.0735389,
      "drain_area_sqmi": 71200.0,
      "site_no": "09328960"
    },
    {
      "id": "07336820",
      "name": "Red River near De Kalb, TX",
      "state": "TX",
      "lat": 33.68400005,
      "lon": -94.6943774,
      "drain_area_sqmi": 47268.0,
      "site_no": "07336820"
    },
    {
      "id": "06674500",
      "name": "NORTH PLATTE RIVER AT WYOMING-NEBRASKA STATE LINE",
      "state": "WY",
      "lat": 41.98857008,
      "lon": -104.0533373,
      "drain_area_sqmi": 22218.0,
      "site_no": "06674500"
    },
    {
      "id": "15565447",
      "name": "YUKON R AT PILOT STATION AK",
      "state": "AK",
      "lat": 61.934444,
      "lon": -162.880556,
      "drain_area_sqmi": 318300.0,
      "site_no": "15565447"
    },
    {
      "id": "14246900",
      "name": "COLUMBIA RIVER AT PORT WESTWARD, NEAR QUINCY, OR",
      "state": "OR",
      "lat": 46.18122136,
      "lon": -123.1834539,
      "drain_area_sqmi": 256900.0,
      "site_no": "14246900"
    },
    {
      "id": "07135500",
      "name": "ARKANSAS RIVER AT HOLLY, CO.",
      "state": "CO",
      "lat": 38.04362258,
      "lon": -102.1196294,
      "drain_area_sqmi": 25073.0,
      "site_no": "07135500"
    },
    {
      "id": "14144700",
      "name": "COLUMBIA RIVER AT VANCOUVER, WA",
      "state": "WA",
      "lat": 45.62067265,
      "lon": -122.6734306,
      "drain_area_sqmi": 241000.0,
      "site_no": "14144700"
    },
    {
      "id": "09521100",
      "name": "COLORADO R BLW YUMA MAIN CANAL WW AT YUMA, AZ",
      "state": "CA",
      "lat": 32.73171354,
      "lon": -114.6327306,
      "drain_area_sqmi": 246500.0,
      "site_no": "09521100"
    },
    {
      "id": "06185500",
      "name": "Missouri River near Culbertson MT",
      "state": "MT",
      "lat": 48.1235,
      "lon": -104.4733,
      "drain_area_sqmi": 89858.0,
      "site_no": "06185500"
    },
    {
      "id": "13269000",
      "name": "SNAKE RIVER AT WEISER ID",
      "state": "ID",
      "lat": 44.24555556,
      "lon": -116.9808333,
      "drain_area_sqmi": 69200.0,
      "site_no": "13269000"
    },
    {
      "id": "06935965",
      "name": "Missouri River at St. Charles, MO",
      "state": "MO",
      "lat": 38.78719444,
      "lon": -90.4718056,
      "drain_area_sqmi": 524000.0,
      "site_no": "06935965"
    },
    {
      "id": "05355250",
      "name": "MISSISSIPPI RIVER AT RED WING, MN",
      "state": "MN",
      "lat": 44.56530556,
      "lon": -92.5424444,
      "drain_area_sqmi": 46900.0,
      "site_no": "05355250"
    },
    {
      "id": "07165570",
      "name": "Arkansas River near Haskell, OK",
      "state": "OK",
      "lat": 35.82277778,
      "lon": -95.6377778,
      "drain_area_sqmi": 75293.0,
      "site_no": "07165570"
    },
    {
      "id": "07263451",
      "name": "Hydroplant @ Murray Dam @ Little Rock, AR",
      "state": "AR",
      "lat": 34.79093675,
      "lon": -92.3590477,
      "drain_area_sqmi": 158030.0,
      "site_no": "07263451"
    },
    {
      "id": "07288955",
      "name": "YAZOO RIVER BL STEELE BAYOU NR LONG LAKE, MS",
      "state": "MS",
      "lat": 32.44416667,
      "lon": -90.9141667,
      "drain_area_sqmi": 13355.0,
      "site_no": "07288955"
    },
    {
      "id": "06807000",
      "name": "Missouri River at Nebraska City, NE",
      "state": "NE",
      "lat": 40.68180556,
      "lon": -95.8470833,
      "drain_area_sqmi": 410000.0,
      "site_no": "06807000"
    },
    {
      "id": "07374000",
      "name": "Mississippi River at Baton Rouge, LA",
      "state": "LA",
      "lat": 30.44566667,
      "lon": -91.1915556,
      "drain_area_sqmi": 1125810.0,
      "site_no": "07374000"
    },
    {
      "id": "01205500",
      "name": "HOUSATONIC RIVER AT STEVENSON, CT",
      "state": "CT",
      "lat": 41.38380278,
      "lon": -73.16663889,
      "drain_area_sqmi": 1544.0,
      "site_no": "01205500"
    },
    {
      "id": "01112500",
      "name": "BLACKSTONE RIVER AT WOONSOCKET, RI",
      "state": "RI",
      "lat": 42.0064871,
      "lon": -71.5025613,
      "drain_area_sqmi": 416.0,
      "site_no": "01112500"
    },
    {
      "id": "01479000",
      "name": "WHITE CLAY CREEK NEAR NEWARK, DE",
      "state": "DE",
      "lat": 39.6992222,
      "lon": -75.67502778,
      "drain_area_sqmi": 89.1,
      "site_no": "01479000"
    },
    {
      "id": "01648000",
      "name": "ROCK CREEK AT SHERRILL DRIVE WASHINGTON, DC",
      "state": "DC",
      "lat": 38.9725,
      "lon": -77.04,
      "drain_area_sqmi": 62.2,
      "site_no": "01648000"
    },
    {
      "id": "03114306",
      "name": "OHIO RIVER ABOVE SARDIS, OH",
      "state": "OH",
      "lat": 39.63027778,
      "lon": -80.8747222,
      "drain_area_sqmi": 26188.0,
      "site_no": "03114306"
    },
    {
      "id": "02358754",
      "name": "APALACHICOLA R.AB CHIPOLA CUTOFF NR WEWAHITCHKA,FL",
      "state": "FL",
      "lat": 30.1322611,
      "lon": -85.1420111,
      "drain_area_sqmi": 17800.0,
      "site_no": "02358754"
    },
    {
      "id": "06892350",
      "name": "KANSAS R AT DESOTO, KS",
      "state": "KS",
      "lat": 38.9833375,
      "lon": -94.9646893,
      "drain_area_sqmi": 59756.0,
      "site_no": "06892350"
    },
    {
      "id": "07020500",
      "name": "Mississippi River at Chester, IL",
      "state": "IL",
      "lat": 37.90075,
      "lon": -89.8302222,
      "drain_area_sqmi": 708600.0,
      "site_no": "07020500"
    },
    {
      "id": "03378500",
      "name": "WABASH RIVER AT NEW HARMONY, IN",
      "state": "IN",
      "lat": 38.13089124,
      "lon": -87.9414145,
      "drain_area_sqmi": 29234.0,
      "site_no": "03378500"
    },
    {
      "id": "01646502",
      "name": "POTOMAC RIVER, ADJUSTED, NEAR WASH, DC",
      "state": "MD",
      "lat": 38.94977778,
      "lon": -77.12763889,
      "drain_area_sqmi": 11560.0,
      "site_no": "01646502"
    },
    {
      "id": "01034500",
      "name": "Penobscot River at West Enfield, Maine",
      "state": "ME",
      "lat": 45.2361111,
      "lon": -68.65138889,
      "drain_area_sqmi": 6422.0,
      "site_no": "01034500"
    },
    {
      "id": "01457500",
      "name": "Delaware River at Riegelsville NJ",
      "state": "NJ",
      "lat": 40.59472222,
      "lon": -75.18972222,
      "drain_area_sqmi": 6328.0,
      "site_no": "01457500"
    },
    {
      "id": "04159130",
      "name": "ST. CLAIR RIVER AT PORT HURON, MI",
      "state": "MI",
      "lat": 42.98697429,
      "lon": -82.4246369,
      "drain_area_sqmi": 222400.0,
      "site_no": "04159130"
    },
    {
      "id": "05474500",
      "name": "Mississippi River at Keokuk, IA",
      "state": "IA",
      "lat": 40.39365535,
      "lon": -91.374318,
      "drain_area_sqmi": 119000.0,
      "site_no": "05474500"
    },
    {
      "id": "08359500",
      "name": "RIO GRANDE AT NARROWS IN ELEPHANT BUTTE RES., NM",
      "state": "NM",
      "lat": 33.38618184,
      "lon": -107.1630872,
      "drain_area_sqmi": 28500.0,
      "site_no": "08359500"
    },
    {
      "id": "02172002",
      "name": "LAKE MOULTRIE TAILRACE CANAL AT MONCKS CORNER, SC",
      "state": "SC",
      "lat": 33.21491667,
      "lon": -79.9749167,
      "drain_area_sqmi": 14800.0,
      "site_no": "02172002"
    },
    {
      "id": "01161280",
      "name": "CONNECTICUT RIVER NEAR NORTHFIELD, MA",
      "state": "MA",
      "lat": 42.68333333,
      "lon": -72.47194444,
      "drain_area_sqmi": 6730.0,
      "site_no": "01161280"
    },
    {
      "id": "04216000",
      "name": "NIAGARA RIVER AT BUFFALO NY",
      "state": "NY",
      "lat": 42.87777778,
      "lon": -78.91638889,
      "drain_area_sqmi": 263700.0,
      "site_no": "04216000"
    },
    {
      "id": "10335000",
      "name": "HUMBOLDT RV NR RYE PATCH, NV",
      "state": "NV",
      "lat": 40.4674063,
      "lon": -118.3076469,
      "drain_area_sqmi": 16100.0,
      "site_no": "10335000"
    },
    {
      "id": "04294000",
      "name": "MISSISQUOI RIVER AT SWANTON, VT",
      "state": "VT",
      "lat": 44.9167499,
      "lon": -73.1285674,
      "drain_area_sqmi": 850.0,
      "site_no": "04294000"
    },
    {
      "id": "03086000",
      "name": "Ohio River at Sewickley, PA",
      "state": "PA",
      "lat": 40.5491864,
      "lon": -80.20560508,
      "drain_area_sqmi": 19500.0,
      "site_no": "03086000"
    },
    {
      "id": "02226000",
      "name": "ALTAMAHA RIVER AT DOCTORTOWN, GA",
      "state": "GA",
      "lat": 31.65466667,
      "lon": -81.8275,
      "drain_area_sqmi": 13600.0,
      "site_no": "02226000"
    },
    {
      "id": "05369500",
      "name": "CHIPPEWA RIVER AT DURAND, WI",
      "state": "WI",
      "lat": 44.631,
      "lon": -91.9713333,
      "drain_area_sqmi": 9010.0,
      "site_no": "05369500"
    },
    {
      "id": "01092000",
      "name": "MERRIMACK R NR GOFFS FALLS, BELOW MANCHESTER, NH",
      "state": "NH",
      "lat": 42.9481405,
      "lon": -71.4634002,
      "drain_area_sqmi": 3092.0,
      "site_no": "01092000"
    },
    {
      "id": "02037500",
      "name": "JAMES RIVER NEAR RICHMOND, VA",
      "state": "VA",
      "lat": 37.5632022,
      "lon": -77.5469314,
      "drain_area_sqmi": 6753.0,
      "site_no": "02037500"
    },
    {
      "id": "02080500",
      "name": "ROANOKE RIVER AT ROANOKE RAPIDS, NC",
      "state": "NC",
      "lat": 36.46,
      "lon": -77.6336111,
      "drain_area_sqmi": 8384.0,
      "site_no": "02080500"
    },
    {
      "id": "09328920",
      "name": "GREEN RIVER AT MINERAL BOTTOM NR CYNLNDS NTL PARK",
      "state": "UT",
      "lat": 38.52402778,
      "lon": -109.9944167,
      "drain_area_sqmi": 48560.0,
      "site_no": "09328920"
    },
    {
      "id": "08116650",
      "name": "Brazos Rv nr Rosharon, TX",
      "state": "TX",
      "lat": 29.34968614,
      "lon": -95.5824635,
      "drain_area_sqmi": 45339.0,
      "site_no": "08116650"
    },
    {
      "id": "06657000",
      "name": "NORTH PLATTE RIVER BELOW WHALEN DIVERSION DAM, WY",
      "state": "WY",
      "lat": 42.2410095,
      "lon": -104.6280247,
      "drain_area_sqmi": 16318.0,
      "site_no": "06657000"
    },
    {
      "id": "15453500",
      "name": "YUKON R NR STEVENS VILLAGE AK",
      "state": "AK",
      "lat": 65.875556,
      "lon": -149.717778,
      "drain_area_sqmi": 194000.0,
      "site_no": "15453500"
    },
    {
      "id": "14105700",
      "name": "COLUMBIA RIVER AT THE DALLES, OR",
      "state": "OR",
      "lat": 45.60827778,
      "lon": -121.1899167,
      "drain_area_sqmi": 237000.0,
      "site_no": "14105700"
    },
    {
      "id": "07134180",
      "name": "ARKANSAS RIVER NEAR GRANADA, CO.",
      "state": "CO",
      "lat": 38.0955649,
      "lon": -102.3107453,
      "drain_area_sqmi": 23500.0,
      "site_no": "07134180"
    },
    {
      "id": "12472800",
      "name": "COLUMBIA RIVER BELOW PRIEST RAPIDS DAM, WA",
      "state": "WA",
      "lat": 46.6287084,
      "lon": -119.8647355,
      "drain_area_sqmi": 96000.0,
      "site_no": "12472800"
    },
    {
      "id": "09429600",
      "name": "COLORADO RIVER BELOW LAGUNA DAM, AZ-CA",
      "state": "CA",
      "lat": 32.8122666,
      "lon": -114.5149494,
      "drain_area_sqmi": 188600.0,
      "site_no": "09429600"
    },
    {
      "id": "06177000",
      "name": "Missouri River near Wolf Point MT",
      "state": "MT",
      "lat": 48.067325,
      "lon": -105.5330972,
      "drain_area_sqmi": 80650.0,
      "site_no": "06177000"
    },
    {
      "id": "13213100",
      "name": "SNAKE RIVER AT NYSSA OR",
      "state": "ID",
      "lat": 43.8761111,
      "lon": -116.9825,
      "drain_area_sqmi": 58700.0,
      "site_no": "13213100"
    },
    {
      "id": "06935550",
      "name": "Missouri River near Labadie, MO",
      "state": "MO",
      "lat": 38.5658333,
      "lon": -90.8391667,
      "drain_area_sqmi": 523300.0,
      "site_no": "06935550"
    },
    {
      "id": "06438500",
      "name": "CHEYENNE RIVER NEAR PLAINVIEW,SD",
      "state": "SD",
      "lat": 44.5294304,
      "lon": -101.9301531,
      "drain_area_sqmi": 21351.0,
      "site_no": "06438500"
    },
    {
      "id": "05331580",
      "name": "MISSISSIPPI RIVER BELOW L&D 2 AT HASTINGS, MN",
      "state": "MN",
      "lat": 44.7460861,
      "lon": -92.8478747,
      "drain_area_sqmi": 37100.0,
      "site_no": "05331580"
    },
    {
      "id": "02428400",
      "name": "ALABAMA RIVER AT CLAIBORNE L&D NEAR MONROEVILLE",
      "state": "AL",
      "lat": 31.61515849,
      "lon": -87.550548,
      "drain_area_sqmi": 21473.0,
      "site_no": "02428400"
    },
    {
      "id": "07164500",
      "name": "Arkansas River at Tulsa, OK",
      "state": "OK",
      "lat": 36.14064807,
      "lon": -96.0063866,
      "drain_area_sqmi": 74460.0,
      "site_no": "07164500"
    },
    {
      "id": "03294500",
      "name": "OHIO RIVER AT LOUISVILLE, KY",
      "state": "KY",
      "lat": 38.28034736,
      "lon": -85.7991305,
      "drain_area_sqmi": 91170.0,
      "site_no": "03294500"
    },
    {
      "id": "05092000",
      "name": "RED RIVER OF THE NORTH AT DRAYTON, ND",
      "state": "ND",
      "lat": 48.5722064,
      "lon": -97.1475697,
      "drain_area_sqmi": 34800.0,
      "site_no": "05092000"
    },
    {
      "id": "07288800",
      "name": "YAZOO RIVER AT REDWOOD, MS",
      "state": "MS",
      "lat": 32.4873633,
      "lon": -90.8173251,
      "drain_area_sqmi": 12603.0,
      "site_no": "07288800"
    },
    {
      "id": "06610000",
      "name": "Missouri River at Omaha, NE",
      "state": "NE",
      "lat": 41.25905556,
      "lon": -95.92325,
      "drain_area_sqmi": 322800.0,
      "site_no": "06610000"
    },
    {
      "id": "07381490",
      "name": "Atchafalaya River at Simmesport, LA",
      "state": "LA",
      "lat": 30.9825,
      "lon": -91.7983333,
      "drain_area_sqmi": 87570.0,
      "site_no": "07381490"
    },
    {
      "id": "01200500",
      "name": "HOUSATONIC RIVER AT GAYLORDSVILLE, CT",
      "state": "CT",
      "lat": 41.65304449,
      "lon": -73.48982401,
      "drain_area_sqmi": 996.0,
      "site_no": "01200500"
    },
    {
      "id": "01118500",
      "name": "PAWCATUCK RIVER AT WESTERLY, RI",
      "state": "RI",
      "lat": 41.385278,
      "lon": -71.833056,
      "drain_area_sqmi": 294.0,
      "site_no": "01118500"
    },
    {
      "id": "01487000",
      "name": "NANTICOKE RIVER NEAR BRIDGEVILLE, DE",
      "state": "DE",
      "lat": 38.728333,
      "lon": -75.561861,
      "drain_area_sqmi": 75.4,
      "site_no": "01487000"
    },
    {
      "id": "03150500",
      "name": "Muskingum River at Beverly OH",
      "state": "OH",
      "lat": 39.5450731,
      "lon": -81.6404066,
      "drain_area_sqmi": 7947.0,
      "site_no": "03150500"
    },
    {
      "id": "02358700",
      "name": "APALACHICOLA RIVER NR BLOUNTSTOWN,FLORIDA",
      "state": "FL",
      "lat": 30.42519625,
      "lon": -85.0313059,
      "drain_area_sqmi": 17600.0,
      "site_no": "02358700"
    },
    {
      "id": "06891080",
      "name": "KANSAS R AT LAWRENCE, KS",
      "state": "KS",
      "lat": 38.97327778,
      "lon": -95.2321111,
      "drain_area_sqmi": 58500.0,
      "site_no": "06891080"
    },
    {
      "id": "03612600",
      "name": "OHIO RIVER AT OLMSTED, IL",
      "state": "IL",
      "lat": 37.17921867,
      "lon": -89.058404,
      "drain_area_sqmi": 203000.0,
      "site_no": "03612600"
    },
    {
      "id": "03343010",
      "name": "WABASH RIVER AT MEMORIAL BRIDGE AT VINCENNES, IN",
      "state": "IN",
      "lat": 38.68143874,
      "lon": -87.5352906,
      "drain_area_sqmi": 13732.0,
      "site_no": "03343010"
    },
    {
      "id": "01638500",
      "name": "POTOMAC RIVER AT POINT OF ROCKS, MD",
      "state": "MD",
      "lat": 39.2735833,
      "lon": -77.5431111,
      "drain_area_sqmi": 9651.0,
      "site_no": "01638500"
    },
    {
      "id": "01014000",
      "name": "St. John River below Fish R, nr Fort Kent, Maine",
      "state": "ME",
      "lat": 47.2833333,
      "lon": -68.58527778,
      "drain_area_sqmi": 5929.0,
      "site_no": "01014000"
    },
    {
      "id": "01446500",
      "name": "Delaware River at Belvidere NJ",
      "state": "NJ",
      "lat": 40.82638889,
      "lon": -75.0825,
      "drain_area_sqmi": 4535.0,
      "site_no": "01446500"
    },
    {
      "id": "04127885",
      "name": "ST. MARYS RIVER AT SAULT STE. MARIE, ONTARIO",
      "state": "MI",
      "lat": 46.4983333,
      "lon": -84.3152778,
      "drain_area_sqmi": 80900.0,
      "site_no": "04127885"
    },
    {
      "id": "05420460",
      "name": "Beaver Slough at 3rd Street at Clinton, IA",
      "state": "IA",
      "lat": 41.82725278,
      "lon": -90.1904056,
      "drain_area_sqmi": 85600.0,
      "site_no": "05420460"
    },
    {
      "id": "08355490",
      "name": "RIO GRANDE ABOVE US HWY 380 NR SAN ANTONIO, NM",
      "state": "NM",
      "lat": 33.92666667,
      "lon": -106.8511667,
      "drain_area_sqmi": 28435.0,
      "site_no": "08355490"
    },
    {
      "id": "03431790",
      "name": "CUMBERLAND RIVER AT ASHLAND CITY, TN",
      "state": "TN",
      "lat": 36.27055556,
      "lon": -87.0761111,
      "drain_area_sqmi": 13117.0,
      "site_no": "03431790"
    },
    {
      "id": "02171500",
      "name": "SANTEE RIVER NEAR PINEVILLE, SC",
      "state": "SC",
      "lat": 33.45377778,
      "lon": -80.1413611,
      "drain_area_sqmi": 14700.0,
      "site_no": "02171500"
    },
    {
      "id": "01100000",
      "name": "MERRIMACK RIVER BL CONCORD RIVER AT LOWELL, MA",
      "state": "MA",
      "lat": 42.64592464,
      "lon": -71.2983937,
      "drain_area_sqmi": 4635.0,
      "site_no": "01100000"
    },
    {
      "id": "01358000",
      "name": "HUDSON RIVER AT GREEN ISLAND NY",
      "state": "NY",
      "lat": 42.75225,
      "lon": -73.68908333,
      "drain_area_sqmi": 8090.0,
      "site_no": "01358000"
    },
    {
      "id": "10333000",
      "name": "HUMBOLDT RV NR IMLAY, NV",
      "state": "NV",
      "lat": 40.6924048,
      "lon": -118.204312,
      "drain_area_sqmi": 15503.93,
      "site_no": "10333000"
    },
    {
      "id": "04292500",
      "name": "LAMOILLE RIVER AT EAST GEORGIA, VT",
      "state": "VT",
      "lat": 44.6792507,
      "lon": -73.0727335,
      "drain_area_sqmi": 686.0,
      "site_no": "04292500"
    },
    {
      "id": "03049500",
      "name": "Allegheny River at Natrona, PA",
      "state": "PA",
      "lat": 40.6152958,
      "lon": -79.7183667,
      "drain_area_sqmi": 11410.0,
      "site_no": "03049500"
    },
    {
      "id": "02225000",
      "name": "ALTAMAHA RIVER NEAR BAXLEY, GA",
      "state": "GA",
      "lat": 31.9395,
      "lon": -82.35338889,
      "drain_area_sqmi": 11600.0,
      "site_no": "02225000"
    },
    {
      "id": "05404000",
      "name": "WISCONSIN RIVER NEAR WISCONSIN DELLS, WI",
      "state": "WI",
      "lat": 43.605,
      "lon": -89.7566667,
      "drain_area_sqmi": 8090.0,
      "site_no": "05404000"
    },
    {
      "id": "01081500",
      "name": "MERRIMACK RIVER AT FRANKLIN JUNCTION, NH",
      "state": "NH",
      "lat": 43.42285456,
      "lon": -71.6528543,
      "drain_area_sqmi": 1507.0,
      "site_no": "01081500"
    },
    {
      "id": "02035000",
      "name": "JAMES RIVER AT CARTERSVILLE, VA",
      "state": "VA",
      "lat": 37.67097957,
      "lon": -78.0858328,
      "drain_area_sqmi": 6252.0,
      "site_no": "02035000"
    },
    {
      "id": "02129000",
      "name": "PEE DEE R NR ROCKINGHAM, NC",
      "state": "NC",
      "lat": 34.9458333,
      "lon": -79.8697222,
      "drain_area_sqmi": 6863.0,
      "site_no": "02129000"
    },
    {
      "id": "09315000",
      "name": "GREEN RIVER AT GREEN RIVER, UT",
      "state": "UT",
      "lat": 38.98886944,
      "lon": -110.15035556,
      "drain_area_sqmi": 44850.0,
      "site_no": "09315000"
    },
    {
      "id": "08114000",
      "name": "Brazos Rv at Richmond, TX",
      "state": "TX",
      "lat": 29.5824589,
      "lon": -95.7577275,
      "drain_area_sqmi": 45107.0,
      "site_no": "08114000"
    },
    {
      "id": "06279500",
      "name": "BIGHORN RIVER AT KANE, WY",
      "state": "WY",
      "lat": 44.75852989,
      "lon": -108.1815559,
      "drain_area_sqmi": 15750.0,
      "site_no": "06279500"
    },
    {
      "id": "15356000",
      "name": "YUKON R AT EAGLE AK",
      "state": "AK",
      "lat": 64.789444,
      "lon": -141.197778,
      "drain_area_sqmi": 111600.0,
      "site_no": "15356000"
    },
    {
      "id": "07133000",
      "name": "ARKANSAS RIVER AT LAMAR, CO",
      "state": "CO",
      "lat": 38.105792,
      "lon": -102.618206,
      "drain_area_sqmi": 19743.0,
      "site_no": "07133000"
    },
    {
      "id": "13334300",
      "name": "SNAKE RIVER NEAR ANATONE, WA",
      "state": "WA",
      "lat": 46.09706985,
      "lon": -116.9776916,
      "drain_area_sqmi": 92960.0,
      "site_no": "13334300"
    },
    {
      "id": "09429490",
      "name": "COLORADO RIVER ABOVE IMPERIAL DAM, AZ-CA",
      "state": "CA",
      "lat": 32.8849361,
      "lon": -114.468111,
      "drain_area_sqmi": 188500.0,
      "site_no": "09429490"
    },
    {
      "id": "06327500",
      "name": "Yellowstone River at Glendive, MT",
      "state": "MT",
      "lat": 47.10588889,
      "lon": -104.7184306,
      "drain_area_sqmi": 66731.0,
      "site_no": "06327500"
    },
    {
      "id": "06935450",
      "name": "Missouri River at Washington, MO",
      "state": "MO",
      "lat": 38.5597222,
      "lon": -91.0075,
      "drain_area_sqmi": 523200.0,
      "site_no": "06935450"
    },
    {
      "id": "06478513",
      "name": "JAMES RIVER NEAR YANKTON, SD",
      "state": "SD",
      "lat": 42.9958297,
      "lon": -97.3697806,
      "drain_area_sqmi": 20962.0,
      "site_no": "06478513"
    },
    {
      "id": "05331000",
      "name": "MISSISSIPPI RIVER AT ST. PAUL, MN",
      "state": "MN",
      "lat": 44.9444444,
      "lon": -93.0881111,
      "drain_area_sqmi": 36800.0,
      "site_no": "05331000"
    },
    {
      "id": "02469761",
      "name": "TOMBIGBEE R AT COFFEEVILLE L&D NR COFFEEVILLE, AL.",
      "state": "AL",
      "lat": 31.75849066,
      "lon": -88.1291763,
      "drain_area_sqmi": 18417.0,
      "site_no": "02469761"
    },
    {
      "id": "07152500",
      "name": "Arkansas River at Ralston, OK",
      "state": "OK",
      "lat": 36.50421677,
      "lon": -96.7283672,
      "drain_area_sqmi": 54208.0,
      "site_no": "07152500"
    },
    {
      "id": "03292494",
      "name": "OHIO RIVER AT WATER TOWER AT LOUISVILLE, KY",
      "state": "KY",
      "lat": 38.28116655,
      "lon": -85.70217636,
      "drain_area_sqmi": 91048.47,
      "site_no": "03292494"
    },
    {
      "id": "05082500",
      "name": "RED RIVER OF THE NORTH AT GRAND FORKS, ND",
      "state": "ND",
      "lat": 47.9269234,
      "lon": -97.0292435,
      "drain_area_sqmi": 30100.0,
      "site_no": "05082500"
    },
    {
      "id": "07260800",
      "name": "Arkansas River near Morrilton, AR",
      "state": "AR",
      "lat": 35.12694444,
      "lon": -92.7316667,
      "drain_area_sqmi": 155000.0,
      "site_no": "07260800"
    },
    {
      "id": "06486000",
      "name": "Missouri River at Sioux City, IA",
      "state": "NE",
      "lat": 42.48619444,
      "lon": -96.4130833,
      "drain_area_sqmi": 314600.0,
      "site_no": "06486000"
    },
    {
      "id": "01127000",
      "name": "QUINEBAUG RIVER AT JEWETT CITY, CT",
      "state": "CT",
      "lat": 41.59749167,
      "lon": -71.98409444,
      "drain_area_sqmi": 713.0,
      "site_no": "01127000"
    },
    {
      "id": "01116500",
      "name": "PAWTUXET RIVER AT CRANSTON, RI",
      "state": "RI",
      "lat": 41.75093399,
      "lon": -71.4450575,
      "drain_area_sqmi": 200.0,
      "site_no": "01116500"
    },
    {
      "id": "01478650",
      "name": "WHITE CLAY CREEK AT NEWARK, DE",
      "state": "DE",
      "lat": 39.6892222,
      "lon": -75.74875,
      "drain_area_sqmi": 69.0,
      "site_no": "01478650"
    },
    {
      "id": "03150000",
      "name": "Muskingum River at McConnelsville OH",
      "state": "OH",
      "lat": 39.6450711,
      "lon": -81.8498578,
      "drain_area_sqmi": 7422.0,
      "site_no": "03150000"
    },
    {
      "id": "02358000",
      "name": "APALACHICOLA RIVER AT CHATTAHOOCHEE FLA",
      "state": "FL",
      "lat": 30.7010251,
      "lon": -84.8590871,
      "drain_area_sqmi": 17200.0,
      "site_no": "02358000"
    },
    {
      "id": "06891000",
      "name": "KANSAS R AT LECOMPTON, KS",
      "state": "KS",
      "lat": 39.05111157,
      "lon": -95.3863633,
      "drain_area_sqmi": 58460.0,
      "site_no": "06891000"
    },
    {
      "id": "05587450",
      "name": "Mississippi River at Grafton, IL",
      "state": "IL",
      "lat": 38.9679722,
      "lon": -90.429,
      "drain_area_sqmi": 171300.0,
      "site_no": "05587450"
    },
    {
      "id": "03342000",
      "name": "WABASH RIVER AT RIVERTON, IN",
      "state": "IN",
      "lat": 39.0203229,
      "lon": -87.568625,
      "drain_area_sqmi": 13161.0,
      "site_no": "03342000"
    },
    {
      "id": "01613000",
      "name": "POTOMAC RIVER AT HANCOCK, MD",
      "state": "MD",
      "lat": 39.69755556,
      "lon": -78.17788889,
      "drain_area_sqmi": 4064.0,
      "site_no": "01613000"
    },
    {
      "id": "01049265",
      "name": "Kennebec River at North Sidney, Maine",
      "state": "ME",
      "lat": 44.4722222,
      "lon": -69.68388889,
      "drain_area_sqmi": 5413.0,
      "site_no": "01049265"
    },
    {
      "id": "01389890",
      "name": "Passaic River at Dundee Dam at Clifton NJ",
      "state": "NJ",
      "lat": 40.88583333,
      "lon": -74.12833333,
      "drain_area_sqmi": 805.0,
      "site_no": "01389890"
    },
    {
      "id": "04157060",
      "name": "SAGINAW RIVER AT MIDLAND STREET AT BAY CITY, MI",
      "state": "MI",
      "lat": 43.60194444,
      "lon": -83.8922222,
      "drain_area_sqmi": 6210.0,
      "site_no": "04157060"
    },
    {
      "id": "05420500",
      "name": "Mississippi River at Clinton, IA",
      "state": "IA",
      "lat": 41.78058635,
      "lon": -90.252073,
      "drain_area_sqmi": 85600.0,
      "site_no": "05420500"
    },
    {
      "id": "08355050",
      "name": "RIO GRANDE AT BRIDGE NEAR ESCONDIDA, NM",
      "state": "NM",
      "lat": 34.1208333,
      "lon": -106.8869444,
      "drain_area_sqmi": 28068.0,
      "site_no": "08355050"
    },