{
  "description": "Live zero-shot river-discharge forecast subset: original 42 benchmark picks + Missoula-area + Yellowstone mainstem + ~50 most-paddled free-flowing whitewater runs in the USA",
  "selection_criteria": "Top stations by ensemble MAE from upstream mixed-corrected-cache benchmark, plus curated whitewater favorites (American Whitewater style listing) skewed toward snowmelt + free-flowing rivers (no dam-release runs). All gauges on USGS NWIS daily 00060 discharge.",
  "source_benchmark": "andrewnakas/north-america-river-watch (2026-04-21 run)",
  "stations": [
    {
      "id": "06192500",
      "name": "Yellowstone River near Livingston, MT",
      "state": "MT",
      "site_no": "06192500",
      "lat": 45.5972111,
      "lon": -110.5664972,
      "drain_area_sqmi": 3551.0,
      "alt_ft": 4542.49,
      "huc_cd": "10070002",
      "state_cd": "30"
    },
    {
      "id": "13337000",
      "name": "LOCHSA RIVER NR LOWELL ID",
      "state": "ID",
      "site_no": "13337000",
      "lat": 46.1508333,
      "lon": -115.5872222,
      "drain_area_sqmi": 1178.0,
      "alt_ft": 1462.5,
      "huc_cd": "17060303",
      "state_cd": "16"
    },
    {
      "id": "13336500",
      "name": "SELWAY RIVER NR LOWELL ID",
      "state": "ID",
      "site_no": "13336500",
      "lat": 46.08666667,
      "lon": -115.5138889,
      "drain_area_sqmi": 1915.0,
      "alt_ft": 1533.45,
      "huc_cd": "17060302",
      "state_cd": "16"
    },
    {
      "id": "06036905",
      "name": "Firehole River near West Yellowstone MT",
      "state": "WY",
      "site_no": "06036905",
      "lat": 44.6201833,
      "lon": -110.8635028,
      "drain_area_sqmi": 261.0,
      "alt_ft": 7050.0,
      "huc_cd": "10020007",
      "state_cd": "56"
    },
    {
      "id": "15056560",
      "name": "KLEHINI R NR KLUKWAN AK",
      "state": "AK",
      "site_no": "15056560",
      "lat": 59.413056,
      "lon": -135.996944,
      "drain_area_sqmi": 285.0,
      "alt_ft": 105.3,
      "huc_cd": "190103031208",
      "state_cd": "02"
    },
    {
      "id": "02231000",
      "name": "ST. MARYS RIVER NEAR MACCLENNY, FL",
      "state": "FL",
      "site_no": "02231000",
      "lat": 30.35884726,
      "lon": -82.0815013,
      "drain_area_sqmi": 700.0,
      "alt_ft": 40.0,
      "huc_cd": "03070204",
      "state_cd": "12"
    },
    {
      "id": "06037100",
      "name": "Gibbon River at Madison Jct, YNP",
      "state": "WY",
      "site_no": "06037100",
      "lat": 44.6408,
      "lon": -110.8610639,
      "drain_area_sqmi": 125.0,
      "alt_ft": 6800.0,
      "huc_cd": "10020007",
      "state_cd": "56"
    },
    {
      "id": "06048650",
      "name": "E Gallatin R ab Water Reclamation Fa nr Bozeman MT",
      "state": "MT",
      "site_no": "06048650",
      "lat": 45.72566667,
      "lon": -111.0661944,
      "drain_area_sqmi": 226.0,
      "alt_ft": 4625.0,
      "huc_cd": "10020008",
      "state_cd": "30"
    },
    {
      "id": "15052000",
      "name": "LEMON C NR JUNEAU AK",
      "state": "AK",
      "site_no": "15052000",
      "lat": 58.3915312,
      "lon": -134.4226873,
      "drain_area_sqmi": 12.3,
      "alt_ft": 667.1,
      "huc_cd": "19010301",
      "state_cd": "02"
    },
    {
      "id": "15055500",
      "name": "ANTLER R BL ANTLER LK NR AUKE BAY AK",
      "state": "AK",
      "site_no": "15055500",
      "lat": 58.85181328,
      "lon": -134.7104997,
      "drain_area_sqmi": 23.5,
      "alt_ft": 128.7,
      "huc_cd": "19010301",
      "state_cd": "02"
    },
    {
      "id": "06036805",
      "name": "Firehole River at Old Faithful, YNP",
      "state": "WY",
      "site_no": "06036805",
      "lat": 44.4593333,
      "lon": -110.8222722,
      "drain_area_sqmi": 39.5,
      "alt_ft": 7352.0,
      "huc_cd": "10020007",
      "state_cd": "56"
    },
    {
      "id": "15052500",
      "name": "MENDENHALL R NR AUKE BAY AK",
      "state": "AK",
      "site_no": "15052500",
      "lat": 58.4293972,
      "lon": -134.5745592,
      "drain_area_sqmi": 84.8,
      "alt_ft": 60.0,
      "huc_cd": "19010301",
      "state_cd": "02"
    },
    {
      "id": "06195600",
      "name": "Shields River nr Livingston MT",
      "state": "MT",
      "site_no": "06195600",
      "lat": 45.7383611,
      "lon": -110.4794694,
      "drain_area_sqmi": 846.0,
      "alt_ft": 4420.0,
      "huc_cd": "10070003",
      "state_cd": "30"
    },
    {
      "id": "06050000",
      "name": "Hyalite C at Hyalite R S nr Bozeman MT",
      "state": "MT",
      "site_no": "06050000",
      "lat": 45.56332778,
      "lon": -111.0718889,
      "drain_area_sqmi": 48.5,
      "alt_ft": 5539.6,
      "huc_cd": "10020008",
      "state_cd": "30"
    },
    {
      "id": "10068500",
      "name": "BEAR RIVER AT PESCADERO ID",
      "state": "ID",
      "site_no": "10068500",
      "lat": 42.4015929,
      "lon": -111.356875,
      "drain_area_sqmi": 3705.0,
      "alt_ft": 5909.85,
      "huc_cd": "16010201",
      "state_cd": "16"
    },
    {
      "id": "06036940",
      "name": "Tantalus Creek at Norris Junction, YNP",
      "state": "WY",
      "site_no": "06036940",
      "lat": 44.732725,
      "lon": -110.7132528,
      "drain_area_sqmi": 1.1,
      "alt_ft": 7460.0,
      "huc_cd": "10020007",
      "state_cd": "56"
    },
    {
      "id": "06708800",
      "name": "EAST PLUM CR ABV HASKINS GULCH NR CASTLE ROCK, CO",
      "state": "CO",
      "site_no": "06708800",
      "lat": 39.423,
      "lon": -104.9046111,
      "drain_area_sqmi": 116.0,
      "alt_ft": 5943.55,
      "huc_cd": "10190002",
      "state_cd": "08"
    },
    {
      "id": "15008000",
      "name": "SALMON R NR HYDER AK",
      "state": "AK",
      "site_no": "15008000",
      "lat": 56.026111,
      "lon": -130.065278,
      "drain_area_sqmi": 107.0,
      "alt_ft": 286.0,
      "huc_cd": "190101060106",
      "state_cd": "02"
    },
    {
      "id": "09180000",
      "name": "DOLORES RIVER NEAR CISCO, UT",
      "state": "UT",
      "site_no": "09180000",
      "lat": 38.79720805,
      "lon": -109.1951142,
      "drain_area_sqmi": 4580.0,
      "alt_ft": 4168.32,
      "huc_cd": "14030004",
      "state_cd": "49"
    },
    {
      "id": "15057596",
      "name": "SALMON R AT GUSTAVUS AK",
      "state": "AK",
      "site_no": "15057596",
      "lat": 58.445,
      "lon": -135.74,
      "drain_area_sqmi": 33.2,
      "alt_ft": 22.8,
      "huc_cd": "190103021404",
      "state_cd": "02"
    },
    {
      "id": "15101490",
      "name": "GREENS C AT GREENS CREEK MINE NR JUNEAU AK",
      "state": "AK",
      "site_no": "15101490",
      "lat": 58.083333,
      "lon": -134.631667,
      "drain_area_sqmi": 8.9,
      "alt_ft": 860.8,
      "huc_cd": "190102040801",
      "state_cd": "02"
    },
    {
      "id": "06814000",
      "name": "TURKEY C NR SENECA, KS",
      "state": "KS",
      "site_no": "06814000",
      "lat": 39.9477773,
      "lon": -96.1086149,
      "drain_area_sqmi": 276.0,
      "alt_ft": 1037.72,
      "huc_cd": "10240007",
      "state_cd": "20"
    },
    {
      "id": "07207000",
      "name": "CIMARRON RIVER NEAR CIMARRON, NM",
      "state": "NM",
      "site_no": "07207000",
      "lat": 36.5198333,
      "lon": -104.9786111,
      "drain_area_sqmi": 294.0,
      "alt_ft": 6602.93,
      "huc_cd": "11080002",
      "state_cd": "35"
    },
    {
      "id": "10125500",
      "name": "MALAD RIVER AT WOODRUFF ID",
      "state": "ID",
      "site_no": "10125500",
      "lat": 42.0297222,
      "lon": -112.2295833,
      "drain_area_sqmi": 472.0,
      "alt_ft": 4366.79,
      "huc_cd": "16010204",
      "state_cd": "16"
    },
    {
      "id": "15088000",
      "name": "SAWMILL C NR SITKA AK",
      "state": "AK",
      "site_no": "15088000",
      "lat": 57.05121946,
      "lon": -135.2295913,
      "drain_area_sqmi": 38.7,
      "alt_ft": 1.9,
      "huc_cd": "19010212",
      "state_cd": "02"
    },
    {
      "id": "10039500",
      "name": "BEAR RIVER AT BORDER, WY",
      "state": "ID",
      "site_no": "10039500",
      "lat": 42.21104338,
      "lon": -111.0538022,
      "drain_area_sqmi": 2480.0,
      "alt_ft": 6056.85,
      "huc_cd": "16010102",
      "state_cd": "16"
    },
    {
      "id": "07203000",
      "name": "VERMEJO RIVER NEAR DAWSON, NM",
      "state": "NM",
      "site_no": "07203000",
      "lat": 36.68102778,
      "lon": -104.7863944,
      "drain_area_sqmi": 344.0,
      "alt_ft": 6378.0,
      "huc_cd": "11080001",
      "state_cd": "35"
    },
    {
      "id": "06043120",
      "name": "Gallatin River above Deer Creek, near Big Sky, MT",
      "state": "MT",
      "site_no": "06043120",
      "lat": 45.29727778,
      "lon": -111.2113917,
      "drain_area_sqmi": 537.6,
      "alt_ft": 5875.0,
      "huc_cd": "10020008",
      "state_cd": "30"
    },
    {
      "id": "09182400",
      "name": "CASTLE CREEK BELOW CASTLE VALLEY NEAR MOAB, UT",
      "state": "UT",
      "site_no": "09182400",
      "lat": 38.673859,
      "lon": -109.4501395,
      "drain_area_sqmi": 58.1,
      "alt_ft": 4120.0,
      "huc_cd": "14030005",
      "state_cd": "49"
    },
    {
      "id": "09379025",
      "name": "CHINLE CREEK AT CHINLE, AZ",
      "state": "AZ",
      "site_no": "09379025",
      "lat": 36.155,
      "lon": -109.5375,
      "drain_area_sqmi": 639.0,
      "alt_ft": 5550.0,
      "huc_cd": "14080204",
      "state_cd": "04"
    },
    {
      "id": "06620000",
      "name": "NORTH PLATTE RIVER NEAR NORTHGATE, CO",
      "state": "CO",
      "site_no": "06620000",
      "lat": 40.93663889,
      "lon": -106.3391944,
      "drain_area_sqmi": 1431.0,
      "alt_ft": 7820.99,
      "huc_cd": "10180001",
      "state_cd": "08"
    },
    {
      "id": "09379200",
      "name": "CHINLE CREEK NEAR MEXICAN WATER, AZ",
      "state": "AZ",
      "site_no": "09379200",
      "lat": 36.94388757,
      "lon": -109.71068655,
      "drain_area_sqmi": 3650.0,
      "alt_ft": 4732.26,
      "huc_cd": "140802041702",
      "state_cd": "04"
    },
    {
      "id": "06052500",
      "name": "Gallatin River at Logan MT",
      "state": "MT",
      "site_no": "06052500",
      "lat": 45.8862472,
      "lon": -111.4420083,
      "drain_area_sqmi": 1789.0,
      "alt_ft": 4086.42,
      "huc_cd": "10020008",
      "state_cd": "30"
    },
    {
      "id": "09417500",
      "name": "MEADOW VALLEY WASH AT EAGLE CYN NR URSINE, NV",
      "state": "NV",
      "site_no": "09417500",
      "lat": 38.0041285,
      "lon": -114.206927,
      "drain_area_sqmi": 293.0,
      "alt_ft": 5653.91,
      "huc_cd": "15010013",
      "state_cd": "32"
    },
    {
      "id": "09382000",
      "name": "PARIA RIVER AT LEES FERRY, AZ",
      "state": "AZ",
      "site_no": "09382000",
      "lat": 36.87221098,
      "lon": -111.59462862,
      "drain_area_sqmi": 1410.0,
      "alt_ft": 3126.26,
      "huc_cd": "140700070706",
      "state_cd": "04"
    },
    {
      "id": "09416000",
      "name": "MUDDY RV NR MOAPA, NV",
      "state": "NV",
      "site_no": "09416000",
      "lat": 36.7110817,
      "lon": -114.6952715,
      "drain_area_sqmi": 3944.0,
      "alt_ft": 1710.0,
      "huc_cd": "15010012",
      "state_cd": "32"
    },
    {
      "id": "09418500",
      "name": "MEADOW VALLEY WASH NR CALIENTE, NV",
      "state": "NV",
      "site_no": "09418500",
      "lat": 37.55837778,
      "lon": -114.5630556,
      "drain_area_sqmi": 1670.0,
      "alt_ft": 4200.0,
      "huc_cd": "15010013",
      "state_cd": "32"
    },
    {
      "id": "06043500",
      "name": "Gallatin River near Gallatin Gateway, MT",
      "state": "MT",
      "site_no": "06043500",
      "lat": 45.4973,
      "lon": -111.2707083,
      "drain_area_sqmi": 819.0,
      "alt_ft": 5167.67,
      "huc_cd": "10020008",
      "state_cd": "30"
    },
    {
      "id": "02176930",
      "name": "CHATTOOGA RIVER AT BURRELLS FORD, NR PINE MTN, GA",
      "state": "GA",
      "site_no": "02176930",
      "lat": 34.97452778,
      "lon": -83.1161667,
      "drain_area_sqmi": 46.7,
      "alt_ft": 2050.0,
      "huc_cd": "03060102",
      "state_cd": "13"
    },
    {
      "id": "10251300",
      "name": "AMARGOSA RV AT TECOPA, CA",
      "state": "CA",
      "site_no": "10251300",
      "lat": 35.84944444,
      "lon": -116.2308333,
      "drain_area_sqmi": 3090.0,
      "alt_ft": 1292.76,
      "huc_cd": "18090202",
      "state_cd": "06"
    },
    {
      "id": "03274650",
      "name": "WHITEWATER RIVER NEAR ECONOMY, IN",
      "state": "IN",
      "site_no": "03274650",
      "lat": 40.0041988,
      "lon": -85.1154894,
      "drain_area_sqmi": 10.4,
      "alt_ft": 1065.58,
      "huc_cd": "05080003",
      "state_cd": "18"
    },
    {
      "id": "05014500",
      "name": "Swiftcurrent Creek at Many Glacier MT",
      "state": "MT",
      "site_no": "05014500",
      "lat": 48.7988333,
      "lon": -113.6567306,
      "drain_area_sqmi": 31.2,
      "alt_ft": 4876.78,
      "huc_cd": "09040001",
      "state_cd": "30"
    },
    {
      "id": "01428750",
      "name": "West Branch Lackawaxen River near Aldenville, PA",
      "state": "PA",
      "site_no": "01428750",
      "lat": 41.67452998,
      "lon": -75.37601299,
      "drain_area_sqmi": 40.6,
      "alt_ft": 1244.0,
      "huc_cd": "02040103",
      "state_cd": "42"
    },
    {
      "id": "12340500",
      "name": "Clark Fork above Missoula MT",
      "state": "MT",
      "site_no": "12340500",
      "lat": 46.87676389,
      "lon": -113.9321194,
      "drain_area_sqmi": 6021.0,
      "alt_ft": 3198.3,
      "huc_cd": "17010204",
      "state_cd": "30"
    },
    {
      "id": "12340000",
      "name": "Blackfoot River near Bonner MT",
      "state": "MT",
      "site_no": "12340000",
      "lat": 46.8994111,
      "lon": -113.7563194,
      "drain_area_sqmi": 2287.0,
      "alt_ft": 3344.76,
      "huc_cd": "17010203",
      "state_cd": "30"
    },
    {
      "id": "12353000",
      "name": "Clark Fork below Missoula MT",
      "state": "MT",
      "site_no": "12353000",
      "lat": 46.8686333,
      "lon": -114.1277472,
      "drain_area_sqmi": 9017.0,
      "alt_ft": 3083.88,
      "huc_cd": "17010204",
      "state_cd": "30"
    },
    {
      "id": "12353500",
      "name": "Clark Fork at Tarkio MT",
      "state": "MT",
      "site_no": "12353500",
      "lat": 47.02179167,
      "lon": -114.7432972,
      "drain_area_sqmi": 9882.0,
      "alt_ft": 2750.0,
      "huc_cd": "17010204",
      "state_cd": "30"
    },
    {
      "id": "12350250",
      "name": "Bitterroot River at Bell Crossing nr Victor MT",
      "state": "MT",
      "site_no": "12350250",
      "lat": 46.4432,
      "lon": -114.1237667,
      "drain_area_sqmi": 1944.0,
      "alt_ft": 3330.0,
      "huc_cd": "17010205",
      "state_cd": "30"
    },
    {
      "id": "12352500",
      "name": "Bitterroot River near Missoula MT",
      "state": "MT",
      "site_no": "12352500",
      "lat": 46.83173889,
      "lon": -114.054861,
      "drain_area_sqmi": 2824.0,
      "alt_ft": 3110.0,
      "huc_cd": "17010205",
      "state_cd": "30"
    },
    {
      "id": "06214500",
      "name": "Yellowstone River at Billings MT",
      "state": "MT",
      "site_no": "06214500",
      "lat": 45.800119,
      "lon": -108.468031,
      "drain_area_sqmi": 11807.0,
      "alt_ft": 3081.72,
      "huc_cd": "100700041006",
      "state_cd": "30"
    },
    {
      "id": "06329500",
      "name": "Yellowstone River near Sidney MT",
      "state": "MT",
      "site_no": "06329500",
      "lat": 47.67741389,
      "lon": -104.1554111,
      "drain_area_sqmi": 69099.0,
      "alt_ft": 1882.87,
      "huc_cd": "10100004",
      "state_cd": "30"
    },
    {
      "id": "06191500",
      "name": "Yellowstone River at Corwin Springs MT",
      "state": "MT",
      "site_no": "06191500",
      "lat": 45.1121194,
      "lon": -110.7936667,
      "drain_area_sqmi": 2615.0,
      "alt_ft": 5079.09,
      "huc_cd": "10070002",
      "state_cd": "30"
    },
    {
      "id": "06037500",
      "name": "Madison River near West Yellowstone, MT",
      "state": "MT",
      "site_no": "06037500",
      "lat": 44.6570722,
      "lon": -111.0679639,
      "drain_area_sqmi": 438.0,
      "alt_ft": 6650.0,
      "huc_cd": "10020007",
      "state_cd": "30"
    },
    {
      "id": "06038500",
      "name": "Madison River bl Hebgen Lake nr Grayling MT",
      "state": "WY",
      "site_no": "06038500",
      "lat": 44.86639167,
      "lon": -111.3387806,
      "drain_area_sqmi": 931.0,
      "alt_ft": 6448.47,
      "huc_cd": "10020007",
      "state_cd": "30"
    },
    {
      "id": "06024450",
      "name": "Big Hole River bl Big Lake Cr at Wisdom MT",
      "state": "WY",
      "site_no": "06024450",
      "lat": 45.61796667,
      "lon": -113.4569417,
      "drain_area_sqmi": 586.0,
      "alt_ft": 6040.0,
      "huc_cd": "10020004",
      "state_cd": "30"
    },
    {
      "id": "06016000",
      "name": "Beaverhead River at Barretts MT",
      "state": "WY",
      "site_no": "06016000",
      "lat": 45.11612778,
      "lon": -112.7504944,
      "drain_area_sqmi": 2730.0,
      "alt_ft": 5268.17,
      "huc_cd": "10020002",
      "state_cd": "30"
    },
    {
      "id": "13317000",
      "name": "SALMON RIVER AT WHITE BIRD ID",
      "state": "ID",
      "site_no": "13317000",
      "lat": 45.75027778,
      "lon": -116.3238889,
      "drain_area_sqmi": 13421.0,
      "alt_ft": 1416.01,
      "huc_cd": "17060209",
      "state_cd": "16"
    },
    {
      "id": "13310700",
      "name": "SF SALMON RIVER NR KRASSEL RANGER STATION ID",
      "state": "ID",
      "site_no": "13310700",
      "lat": 44.9869444,
      "lon": -115.725,
      "drain_area_sqmi": 330.0,
      "alt_ft": 3750.0,
      "huc_cd": "17060208",
      "state_cd": "16"
    },
    {
      "id": "13309220",
      "name": "MF SALMON RIVER AT MF LODGE NR YELLOW PINE ID",
      "state": "ID",
      "site_no": "13309220",
      "lat": 44.7215194,
      "lon": -115.0143472,
      "drain_area_sqmi": 1042.0,
      "alt_ft": 4384.4,
      "huc_cd": "17060205",
      "state_cd": "16"
    },
    {
      "id": "13340000",
      "name": "CLEARWATER RIVER AT OROFINO ID",
      "state": "ID",
      "site_no": "13340000",
      "lat": 46.4783333,
      "lon": -116.2575,
      "drain_area_sqmi": 5507.0,
      "alt_ft": 993.89,
      "huc_cd": "17060306",
      "state_cd": "16"
    },
    {
      "id": "13338500",
      "name": "SF CLEARWATER RIVER AT STITES ID",
      "state": "ID",
      "site_no": "13338500",
      "lat": 46.08638889,
      "lon": -115.9766667,
      "drain_area_sqmi": 1168.0,
      "alt_ft": 1327.12,
      "huc_cd": "17060305",
      "state_cd": "16"
    },
    {
      "id": "13302500",
      "name": "SALMON RIVER AT SALMON ID",
      "state": "ID",
      "site_no": "13302500",
      "lat": 45.1836111,
      "lon": -113.8952778,
      "drain_area_sqmi": 3737.0,
      "alt_ft": 3914.99,
      "huc_cd": "17060203",
      "state_cd": "16"
    },
    {
      "id": "13247500",
      "name": "PAYETTE RIVER NR HORSESHOE BEND ID",
      "state": "ID",
      "site_no": "13247500",
      "lat": 43.943333,
      "lon": -116.196667,
      "drain_area_sqmi": 2220.0,
      "alt_ft": 2628.69,
      "huc_cd": "170501220107",
      "state_cd": "16"
    },
    {
      "id": "13251000",
      "name": "PAYETTE RIVER NR PAYETTE ID",
      "state": "ID",
      "site_no": "13251000",
      "lat": 44.042222,
      "lon": -116.925278,
      "drain_area_sqmi": 3240.0,
      "alt_ft": 2142.06,
      "huc_cd": "170501220905",
      "state_cd": "16"
    },
    {
      "id": "13186000",
      "name": "SF BOISE RIVER NR FEATHERVILLE ID",
      "state": "ID",
      "site_no": "13186000",
      "lat": 43.4958333,
      "lon": -115.3080556,
      "drain_area_sqmi": 641.0,
      "alt_ft": 4222.39,
      "huc_cd": "17050113",
      "state_cd": "16"
    },
    {
      "id": "12413000",
      "name": "NF COEUR D ALENE RIVER AT ENAVILLE ID",
      "state": "ID",
      "site_no": "12413000",
      "lat": 47.5722,
      "lon": -116.2528,
      "drain_area_sqmi": 895.0,
      "alt_ft": 2179.08,
      "huc_cd": "17010301",
      "state_cd": "16"
    },
    {
      "id": "09085000",
      "name": "ROARING FORK RIVER AT GLENWOOD SPRINGS, CO.",
      "state": "CO",
      "site_no": "09085000",
      "lat": 39.54666667,
      "lon": -107.33083333,
      "drain_area_sqmi": 1453.0,
      "alt_ft": 5720.05,
      "huc_cd": "140100041003",
      "state_cd": "08"
    },
    {
      "id": "09080400",
      "name": "FRYINGPAN RIVER NEAR RUEDI, CO.",
      "state": "CO",
      "site_no": "09080400",
      "lat": 39.36554075,
      "lon": -106.8255948,
      "drain_area_sqmi": 237.0,
      "alt_ft": 7478.19,
      "huc_cd": "14010004",
      "state_cd": "08"
    },
    {
      "id": "09124500",
      "name": "LAKE FORK AT GATEVIEW, CO.",
      "state": "CO",
      "site_no": "09124500",
      "lat": 38.2988834,
      "lon": -107.2300557,
      "drain_area_sqmi": 339.0,
      "alt_ft": 7833.68,
      "huc_cd": "14020002",
      "state_cd": "08"
    },
    {
      "id": "09110000",
      "name": "TAYLOR RIVER AT ALMONT, CO.",
      "state": "CO",
      "site_no": "09110000",
      "lat": 38.664444,
      "lon": -106.844722,
      "drain_area_sqmi": 476.0,
      "alt_ft": 8016.2,
      "huc_cd": "140200010113",
      "state_cd": "08"
    },
    {
      "id": "09128000",
      "name": "GUNNISON RIVER BELOW GUNNISON TUNNEL, CO",
      "state": "CO",
      "site_no": "09128000",
      "lat": 38.52915336,
      "lon": -107.648947,
      "drain_area_sqmi": 3971.0,
      "alt_ft": 6514.2,
      "huc_cd": "14020002",
      "state_cd": "08"
    },
    {
      "id": "09239500",
      "name": "YAMPA RIVER AT STEAMBOAT SPRINGS, CO",
      "state": "CO",
      "site_no": "09239500",
      "lat": 40.48298611,
      "lon": -106.83243056,
      "drain_area_sqmi": 567.0,
      "alt_ft": 6701.31,
      "huc_cd": "140500010409",
      "state_cd": "08"
    },
    {
      "id": "09251000",
      "name": "YAMPA RIVER NEAR MAYBELL, CO",
      "state": "CO",
      "site_no": "09251000",
      "lat": 40.50273085,
      "lon": -108.0334482,
      "drain_area_sqmi": 3383.0,
      "alt_ft": 5904.25,
      "huc_cd": "140500020406",
      "state_cd": "08"
    },
    {
      "id": "09304500",
      "name": "WHITE RIVER NEAR MEEKER, CO.",
      "state": "UT",
      "site_no": "09304500",
      "lat": 40.03359167,
      "lon": -107.86241944,
      "drain_area_sqmi": 760.0,
      "alt_ft": 6305.24,
      "huc_cd": "140500050310",
      "state_cd": "08"
    },
    {
      "id": "09328500",
      "name": "SAN RAFAEL RIVER NEAR GREEN RIVER, UT",
      "state": "UT",
      "site_no": "09328500",
      "lat": 38.8583081,
      "lon": -110.3701469,
      "drain_area_sqmi": 1628.0,
      "alt_ft": 4180.95,
      "huc_cd": "14060009",
      "state_cd": "49"
    },
    {
      "id": "09380000",
      "name": "COLORADO RIVER AT LEES FERRY, AZ",
      "state": "AZ",
      "site_no": "09380000",
      "lat": 36.86433333,
      "lon": -111.58787222,
      "drain_area_sqmi": 111800.0,
      "alt_ft": 3109.13,
      "huc_cd": "140700061105",
      "state_cd": "04"
    },
    {
      "id": "09185600",
      "name": "COLORADO RIVER AT POTASH, UT",
      "state": "UT",
      "site_no": "09185600",
      "lat": 38.5047222,
      "lon": -109.6583333,
      "drain_area_sqmi": 25406.0,
      "alt_ft": 3926.29,
      "huc_cd": "14030005",
      "state_cd": "49"
    },
    {
      "id": "09404200",
      "name": "COLORADO RVR ABV DIAMOND CREEK NR PEACH SPRINGS AZ",
      "state": "UT",
      "site_no": "09404200",
      "lat": 35.7735994,
      "lon": -113.363544,
      "drain_area_sqmi": 149316.0,
      "alt_ft": 1340.0,
      "huc_cd": "15010002",
      "state_cd": "04"
    },
    {
      "id": "12134500",
      "name": "SKYKOMISH RIVER NEAR GOLD BAR, WA",
      "state": "WA",
      "site_no": "12134500",
      "lat": 47.83732546,
      "lon": -121.6667809,
      "drain_area_sqmi": 535.0,
      "alt_ft": 212.91,
      "huc_cd": "17110009",
      "state_cd": "53"
    },
    {
      "id": "12141300",
      "name": "MIDDLE FORK SNOQUALMIE RIVER NEAR TANNER, WA",
      "state": "WA",
      "site_no": "12141300",
      "lat": 47.48591189,
      "lon": -121.647864,
      "drain_area_sqmi": 154.0,
      "alt_ft": 784.61,
      "huc_cd": "17110010",
      "state_cd": "53"
    },
    {
      "id": "12048000",
      "name": "DUNGENESS RIVER NEAR SEQUIM, WA",
      "state": "WA",
      "site_no": "12048000",
      "lat": 48.0142578,
      "lon": -123.1326773,
      "drain_area_sqmi": 156.0,
      "alt_ft": 565.9,
      "huc_cd": "17110020",
      "state_cd": "53"
    },
    {
      "id": "14305500",
      "name": "SILETZ RIVER AT SILETZ, OR",
      "state": "OR",
      "site_no": "14305500",
      "lat": 44.7151172,
      "lon": -123.8873348,
      "drain_area_sqmi": 202.0,
      "alt_ft": 102.32,
      "huc_cd": "17100204",
      "state_cd": "41"
    },
    {
      "id": "14162500",
      "name": "MCKENZIE RIVER NEAR VIDA, OR",
      "state": "OR",
      "site_no": "14162500",
      "lat": 44.1248487,
      "lon": -122.47062,
      "drain_area_sqmi": 930.0,
      "alt_ft": 855.71,
      "huc_cd": "17090004",
      "state_cd": "41"
    },
    {
      "id": "14211720",
      "name": "WILLAMETTE RIVER AT PORTLAND, OR",
      "state": "OR",
      "site_no": "14211720",
      "lat": 45.5175,
      "lon": -122.6691667,
      "drain_area_sqmi": 11200.0,
      "alt_ft": 1.55,
      "huc_cd": "17090012",
      "state_cd": "41"
    },
    {
      "id": "14377100",
      "name": "ILLINOIS RIVER NEAR KERBY, OR",
      "state": "OR",
      "site_no": "14377100",
      "lat": 42.23177936,
      "lon": -123.66368,
      "drain_area_sqmi": 380.0,
      "alt_ft": 1198.8,
      "huc_cd": "17100311",
      "state_cd": "41"
    },
    {
      "id": "11475000",
      "name": "EEL R A FORT SEWARD CA",
      "state": "CA",
      "site_no": "11475000",
      "lat": 40.21816919,
      "lon": -123.6325017,
      "drain_area_sqmi": 2107.0,
      "alt_ft": 220.33,
      "huc_cd": "18010105",
      "state_cd": "06"
    },
    {
      "id": "11186000",
      "name": "KERN R NR KERNVILLE (RIVER ONLY) CA",
      "state": "CA",
      "site_no": "11186000",
      "lat": 35.94522615,
      "lon": -118.4775862,
      "drain_area_sqmi": 846.0,
      "alt_ft": 3620.0,
      "huc_cd": "18030001",
      "state_cd": "06"
    },
    {
      "id": "11264500",
      "name": "MERCED R A HAPPY ISLES BRIDGE NR YOSEMITE CA",
      "state": "CA",
      "site_no": "11264500",
      "lat": 37.73130354,
      "lon": -119.5590243,
      "drain_area_sqmi": 181.0,
      "alt_ft": 4020.46,
      "huc_cd": "18040008",
      "state_cd": "06"
    },
    {
      "id": "11335000",
      "name": "COSUMNES R A MICHIGAN BAR CA",
      "state": "CA",
      "site_no": "11335000",
      "lat": 38.5001656,
      "lon": -121.0451852,
      "drain_area_sqmi": 536.0,
      "alt_ft": 170.68,
      "huc_cd": "18040013",
      "state_cd": "06"
    },
    {
      "id": "11427000",
      "name": "NF AMERICAN R A NORTH FORK DAM CA",
      "state": "CA",
      "site_no": "11427000",
      "lat": 38.9359915,
      "lon": -121.023802,
      "drain_area_sqmi": 342.0,
      "alt_ft": 717.28,
      "huc_cd": "18020128",
      "state_cd": "06"
    },
    {
      "id": "10336660",
      "name": "BLACKWOOD C NR TAHOE CITY CA",
      "state": "CA",
      "site_no": "10336660",
      "lat": 39.107385,
      "lon": -120.1621147,
      "drain_area_sqmi": 11.2,
      "alt_ft": 6228.47,
      "huc_cd": "16050101",
      "state_cd": "06"
    },
    {
      "id": "03473000",
      "name": "S F HOLSTON RIVER NEAR DAMASCUS, VA",
      "state": "VA",
      "site_no": "03473000",
      "lat": 36.65178127,
      "lon": -81.8440102,
      "drain_area_sqmi": 303.0,
      "alt_ft": 1792.3,
      "huc_cd": "06010102",
      "state_cd": "51"
    },
    {
      "id": "01605500",
      "name": "SOUTH BRANCH POTOMAC RIVER AT FRANKLIN, WV",
      "state": "WV",
      "site_no": "01605500",
      "lat": 38.63567247,
      "lon": -79.3378199,
      "drain_area_sqmi": 179.0,
      "alt_ft": 1692.92,
      "huc_cd": "02070001",
      "state_cd": "54"
    },
    {
      "id": "03187500",
      "name": "CRANBERRY RIVER NEAR RICHWOOD, WV",
      "state": "WV",
      "site_no": "03187500",
      "lat": 38.2953903,
      "lon": -80.5264749,
      "drain_area_sqmi": 80.4,
      "alt_ft": 2129.8,
      "huc_cd": "05050005",
      "state_cd": "54"
    },
    {
      "id": "03186500",
      "name": "WILLIAMS RIVER AT DYER, WV",
      "state": "WV",
      "site_no": "03186500",
      "lat": 38.37899915,
      "lon": -80.4839737,
      "drain_area_sqmi": 128.0,
      "alt_ft": 2193.9,
      "huc_cd": "05050005",
      "state_cd": "54"
    },
    {
      "id": "01413500",
      "name": "EAST BRANCH DELAWARE RIVER AT MARGARETVILLE NY",
      "state": "NY",
      "site_no": "01413500",
      "lat": 42.14477778,
      "lon": -74.65336111,
      "drain_area_sqmi": 163.0,
      "alt_ft": 1301.67,
      "huc_cd": "020401020306",
      "state_cd": "36"
    },
    {
      "id": "01411500",
      "name": "Maurice River at Norma NJ",
      "state": "NJ",
      "site_no": "01411500",
      "lat": 39.49555556,
      "lon": -75.07694444,
      "drain_area_sqmi": 112.0,
      "alt_ft": 45.52,
      "huc_cd": "020402060405",
      "state_cd": "34"
    },
    {
      "id": "01055000",
      "name": "Swift River near Roxbury, Maine",
      "state": "ME",
      "site_no": "01055000",
      "lat": 44.64277778,
      "lon": -70.58888889,
      "drain_area_sqmi": 96.4,
      "alt_ft": 615.27,
      "huc_cd": "01040002",
      "state_cd": "23"
    },
    {
      "id": "01334500",
      "name": "HOOSIC RIVER NEAR EAGLE BRIDGE NY",
      "state": "MA",
      "site_no": "01334500",
      "lat": 42.9385833,
      "lon": -73.3769444,
      "drain_area_sqmi": 510.0,
      "alt_ft": 354.79,
      "huc_cd": "02020003",
      "state_cd": "36"
    },
    {
      "id": "02053200",
      "name": "POTECASI CREEK NEAR UNION, NC",
      "state": "NC",
      "site_no": "02053200",
      "lat": 36.3708333,
      "lon": -77.0255556,
      "drain_area_sqmi": 225.0,
      "alt_ft": 2.4,
      "huc_cd": "03010204",
      "state_cd": "37"
    },
    {
      "id": "03451500",
      "name": "FRENCH BROAD RIVER AT ASHEVILLE, NC",
      "state": "NC",
      "site_no": "03451500",
      "lat": 35.60888889,
      "lon": -82.5780556,
      "drain_area_sqmi": 945.0,
      "alt_ft": 1949.93,
      "huc_cd": "06010105",
      "state_cd": "37"
    },
    {
      "id": "02177000",
      "name": "CHATTOOGA RIVER NEAR CLAYTON, GA",
      "state": "GA",
      "site_no": "02177000",
      "lat": 34.81377778,
      "lon": -83.3063611,
      "drain_area_sqmi": 207.0,
      "alt_ft": 1165.5,
      "huc_cd": "03060102",
      "state_cd": "45"
    },
    {
      "id": "02338660",
      "name": "NEW RIVER AT GA 100, NEAR CORINTH, GA",
      "state": "GA",
      "site_no": "02338660",
      "lat": 33.2357222,
      "lon": -84.9875556,
      "drain_area_sqmi": 127.0,
      "alt_ft": 634.81,
      "huc_cd": "03130002",
      "state_cd": "13"
    }
  ]
}