{
  "description": "40-station benchmark subset for live zero-shot river forecasting",
  "selection_criteria": "Top stations by ensemble MAE from upstream mixed-corrected-cache benchmark, capped per-state for geographic diversity",
  "source_benchmark": "andrewnakas/north-america-river-watch (2026-04-21 run)",
  "stations": [
    {
      "id": "06036905",
      "name": "Firehole River near West Yellowstone MT",
      "state": "WY",
      "site_no": "06036905",
      "lat": 44.6201833,
      "lon": -110.8635028,
      "alt_ft": 7050.0,
      "huc_cd": "10020007",
      "state_cd": ""
    },
    {
      "id": "15056560",
      "name": "KLEHINI R NR KLUKWAN AK",
      "state": "AK",
      "site_no": "15056560",
      "lat": 59.413056,
      "lon": -135.996944,
      "drain_area_sqmi": 285.0,
      "alt_ft": 105.3,
      "huc_cd": "190103031208",
      "state_cd": "02"
    },
    {
      "id": "02231000",
      "name": "ST. MARYS RIVER NEAR MACCLENNY, FL",
      "state": "FL",
      "site_no": "02231000",
      "lat": 30.35884726,
      "lon": -82.0815013,
      "drain_area_sqmi": 700.0,
      "alt_ft": 40.0,
      "huc_cd": "03070204",
      "state_cd": "12"
    },
    {
      "id": "06037100",
      "name": "Gibbon River at Madison Jct, YNP",
      "state": "WY",
      "site_no": "06037100",
      "lat": 44.6408,
      "lon": -110.8610639,
      "drain_area_sqmi": 125.0,
      "alt_ft": 6800.0,
      "huc_cd": "10020007",
      "state_cd": "56"
    },
    {
      "id": "06048650",
      "name": "E Gallatin R ab Water Reclamation Fa nr Bozeman MT",
      "state": "MT",
      "site_no": "06048650",
      "lat": 45.72566667,
      "lon": -111.0661944,
      "drain_area_sqmi": 226.0,
      "alt_ft": 4625.0,
      "huc_cd": "10020008",
      "state_cd": "30"
    },
    {
      "id": "15052000",
      "name": "LEMON C NR JUNEAU AK",
      "state": "AK",
      "site_no": "15052000",
      "lat": 58.3915312,
      "lon": -134.4226873,
      "drain_area_sqmi": 12.3,
      "alt_ft": 667.1,
      "huc_cd": "19010301",
      "state_cd": "02"
    },
    {
      "id": "15055500",
      "name": "ANTLER R BL ANTLER LK NR AUKE BAY AK",
      "state": "AK",
      "site_no": "15055500",
      "lat": 58.85181328,
      "lon": -134.7104997,
      "drain_area_sqmi": 23.5,
      "alt_ft": 128.7,
      "huc_cd": "19010301",
      "state_cd": "02"
    },
    {
      "id": "06036805",
      "name": "Firehole River at Old Faithful, YNP",
      "state": "WY",
      "site_no": "06036805",
      "lat": 44.4593333,
      "lon": -110.8222722,
      "drain_area_sqmi": 39.5,
      "alt_ft": 7352.0,
      "huc_cd": "10020007",
      "state_cd": "56"
    },
    {
      "id": "15052500",
      "name": "MENDENHALL R NR AUKE BAY AK",
      "state": "AK",
      "site_no": "15052500",
      "lat": 58.4293972,
      "lon": -134.5745592,
      "drain_area_sqmi": 84.8,
      "alt_ft": 60.0,
      "huc_cd": "19010301",
      "state_cd": "02"
    },
    {
      "id": "06195600",
      "name": "Shields River nr Livingston MT",
      "state": "MT",
      "site_no": "06195600",
      "lat": 45.7383611,
      "lon": -110.4794694,
      "drain_area_sqmi": 846.0,
      "alt_ft": 4420.0,
      "huc_cd": "10070003",
      "state_cd": "30"
    },
    {
      "id": "06050000",
      "name": "Hyalite C at Hyalite R S nr Bozeman MT",
      "state": "MT",
      "site_no": "06050000",
      "lat": 45.56332778,
      "lon": -111.0718889,
      "drain_area_sqmi": 48.5,
      "alt_ft": 5539.6,
      "huc_cd": "10020008",
      "state_cd": "30"
    },
    {
      "id": "10068500",
      "name": "BEAR RIVER AT PESCADERO ID",
      "state": "ID",
      "site_no": "10068500",
      "lat": 42.4015929,
      "lon": -111.356875,
      "drain_area_sqmi": 3705.0,
      "alt_ft": 5909.85,
      "huc_cd": "16010201",
      "state_cd": "16"
    },
    {
      "id": "06036940",
      "name": "Tantalus Creek at Norris Junction, YNP",
      "state": "WY",
      "site_no": "06036940",
      "lat": 44.732725,
      "lon": -110.7132528,
      "drain_area_sqmi": 1.1,
      "alt_ft": 7460.0,
      "huc_cd": "10020007",
      "state_cd": "56"
    },
    {
      "id": "06708800",
      "name": "EAST PLUM CR ABV HASKINS GULCH NR CASTLE ROCK, CO",
      "state": "CO",
      "site_no": "06708800",
      "lat": 39.423,
      "lon": -104.9046111,
      "drain_area_sqmi": 116.0,
      "alt_ft": 5943.55,
      "huc_cd": "10190002",
      "state_cd": "08"
    },
    {
      "id": "15008000",
      "name": "SALMON R NR HYDER AK",
      "state": "AK",
      "site_no": "15008000",
      "lat": 56.026111,
      "lon": -130.065278,
      "drain_area_sqmi": 107.0,
      "alt_ft": 286.0,
      "huc_cd": "190101060106",
      "state_cd": "02"
    },
    {
      "id": "09180000",
      "name": "DOLORES RIVER NEAR CISCO, UT",
      "state": "UT",
      "site_no": "09180000",
      "lat": 38.79720805,
      "lon": -109.1951142,
      "drain_area_sqmi": 4580.0,
      "alt_ft": 4168.32,
      "huc_cd": "14030004",
      "state_cd": "49"
    },
    {
      "id": "15057596",
      "name": "SALMON R AT GUSTAVUS AK",
      "state": "AK",
      "site_no": "15057596",
      "lat": 58.445,
      "lon": -135.74,
      "drain_area_sqmi": 33.2,
      "alt_ft": 22.8,
      "huc_cd": "190103021404",
      "state_cd": "02"
    },
    {
      "id": "15101490",
      "name": "GREENS C AT GREENS CREEK MINE NR JUNEAU AK",
      "state": "AK",
      "site_no": "15101490",
      "lat": 58.083333,
      "lon": -134.631667,
      "drain_area_sqmi": 8.9,
      "alt_ft": 860.8,
      "huc_cd": "190102040801",
      "state_cd": "02"
    },
    {
      "id": "06814000",
      "name": "TURKEY C NR SENECA, KS",
      "state": "KS",
      "site_no": "06814000",
      "lat": 39.9477773,
      "lon": -96.1086149,
      "drain_area_sqmi": 276.0,
      "alt_ft": 1037.72,
      "huc_cd": "10240007",
      "state_cd": "20"
    },
    {
      "id": "07207000",
      "name": "CIMARRON RIVER NEAR CIMARRON, NM",
      "state": "NM",
      "site_no": "07207000",
      "lat": 36.5198333,
      "lon": -104.9786111,
      "drain_area_sqmi": 294.0,
      "alt_ft": 6602.93,
      "huc_cd": "11080002",
      "state_cd": "35"
    },
    {
      "id": "10125500",
      "name": "MALAD RIVER AT WOODRUFF ID",
      "state": "ID",
      "site_no": "10125500",
      "lat": 42.0297222,
      "lon": -112.2295833,
      "drain_area_sqmi": 472.0,
      "alt_ft": 4366.79,
      "huc_cd": "16010204",
      "state_cd": "16"
    },
    {
      "id": "15088000",
      "name": "SAWMILL C NR SITKA AK",
      "state": "AK",
      "site_no": "15088000",
      "lat": 57.05121946,
      "lon": -135.2295913,
      "drain_area_sqmi": 38.7,
      "alt_ft": 1.9,
      "huc_cd": "19010212",
      "state_cd": "02"
    },
    {
      "id": "10039500",
      "name": "BEAR RIVER AT BORDER, WY",
      "state": "ID",
      "site_no": "10039500",
      "lat": 42.21104338,
      "lon": -111.0538022,
      "drain_area_sqmi": 2480.0,
      "alt_ft": 6056.85,
      "huc_cd": "16010102",
      "state_cd": "16"
    },
    {
      "id": "07203000",
      "name": "VERMEJO RIVER NEAR DAWSON, NM",
      "state": "NM",
      "site_no": "07203000",
      "lat": 36.68102778,
      "lon": -104.7863944,
      "drain_area_sqmi": 344.0,
      "alt_ft": 6378.0,
      "huc_cd": "11080001",
      "state_cd": "35"
    },
    {
      "id": "06043120",
      "name": "Gallatin River above Deer Creek, near Big Sky, MT",
      "state": "MT",
      "site_no": "06043120",
      "lat": 45.29727778,
      "lon": -111.2113917,
      "drain_area_sqmi": 537.6,
      "alt_ft": 5875.0,
      "huc_cd": "10020008",
      "state_cd": "30"
    },
    {
      "id": "09182400",
      "name": "CASTLE CREEK BELOW CASTLE VALLEY NEAR MOAB, UT",
      "state": "UT",
      "site_no": "09182400",
      "lat": 38.673859,
      "lon": -109.4501395,
      "drain_area_sqmi": 58.1,
      "alt_ft": 4120.0,
      "huc_cd": "14030005",
      "state_cd": "49"
    },
    {
      "id": "09379025",
      "name": "CHINLE CREEK AT CHINLE, AZ",
      "state": "AZ",
      "site_no": "09379025",
      "lat": 36.155,
      "lon": -109.5375,
      "drain_area_sqmi": 639.0,
      "alt_ft": 5550.0,
      "huc_cd": "14080204",
      "state_cd": "04"
    },
    {
      "id": "06620000",
      "name": "NORTH PLATTE RIVER NEAR NORTHGATE, CO",
      "state": "CO",
      "site_no": "06620000",
      "lat": 40.93663889,
      "lon": -106.3391944,
      "drain_area_sqmi": 1431.0,
      "alt_ft": 7820.99,
      "huc_cd": "10180001",
      "state_cd": "08"
    },
    {
      "id": "09379200",
      "name": "CHINLE CREEK NEAR MEXICAN WATER, AZ",
      "state": "AZ",
      "site_no": "09379200",
      "lat": 36.94388757,
      "lon": -109.71068655,
      "drain_area_sqmi": 3650.0,
      "alt_ft": 4732.26,
      "huc_cd": "140802041702",
      "state_cd": "04"
    },
    {
      "id": "06052500",
      "name": "Gallatin River at Logan MT",
      "state": "MT",
      "site_no": "06052500",
      "lat": 45.8862472,
      "lon": -111.4420083,
      "drain_area_sqmi": 1789.0,
      "alt_ft": 4086.42,
      "huc_cd": "10020008",
      "state_cd": "30"
    },
    {
      "id": "09417500",
      "name": "MEADOW VALLEY WASH AT EAGLE CYN NR URSINE, NV",
      "state": "NV",
      "site_no": "09417500",
      "lat": 38.0041285,
      "lon": -114.206927,
      "drain_area_sqmi": 293.0,
      "alt_ft": 5653.91,
      "huc_cd": "15010013",
      "state_cd": "32"
    },
    {
      "id": "09382000",
      "name": "PARIA RIVER AT LEES FERRY, AZ",
      "state": "AZ",
      "site_no": "09382000",
      "lat": 36.87221098,
      "lon": -111.59462862,
      "drain_area_sqmi": 1410.0,
      "alt_ft": 3126.26,
      "huc_cd": "140700070706",
      "state_cd": "04"
    },
    {
      "id": "09416000",
      "name": "MUDDY RV NR MOAPA, NV",
      "state": "NV",
      "site_no": "09416000",
      "lat": 36.7110817,
      "lon": -114.6952715,
      "drain_area_sqmi": 3944.0,
      "alt_ft": 1710.0,
      "huc_cd": "15010012",
      "state_cd": "32"
    },
    {
      "id": "09418500",
      "name": "MEADOW VALLEY WASH NR CALIENTE, NV",
      "state": "NV",
      "site_no": "09418500",
      "lat": 37.55837778,
      "lon": -114.5630556,
      "drain_area_sqmi": 1670.0,
      "alt_ft": 4200.0,
      "huc_cd": "15010013",
      "state_cd": "32"
    },
    {
      "id": "06043500",
      "name": "Gallatin River near Gallatin Gateway, MT",
      "state": "MT",
      "site_no": "06043500",
      "lat": 45.4973,
      "lon": -111.2707083,
      "drain_area_sqmi": 819.0,
      "alt_ft": 5167.67,
      "huc_cd": "10020008",
      "state_cd": "30"
    },
    {
      "id": "02176930",
      "name": "CHATTOOGA RIVER AT BURRELLS FORD, NR PINE MTN, GA",
      "state": "GA",
      "site_no": "02176930",
      "lat": 34.97452778,
      "lon": -83.1161667,
      "drain_area_sqmi": 46.7,
      "alt_ft": 2050.0,
      "huc_cd": "03060102",
      "state_cd": "13"
    },
    {
      "id": "10251300",
      "name": "AMARGOSA RV AT TECOPA, CA",
      "state": "CA",
      "site_no": "10251300",
      "lat": 35.84944444,
      "lon": -116.2308333,
      "drain_area_sqmi": 3090.0,
      "alt_ft": 1292.76,
      "huc_cd": "18090202",
      "state_cd": "06"
    },
    {
      "id": "03274650",
      "name": "WHITEWATER RIVER NEAR ECONOMY, IN",
      "state": "IN",
      "site_no": "03274650",
      "lat": 40.0041988,
      "lon": -85.1154894,
      "drain_area_sqmi": 10.4,
      "alt_ft": 1065.58,
      "huc_cd": "05080003",
      "state_cd": "18"
    },
    {
      "id": "05014500",
      "name": "Swiftcurrent Creek at Many Glacier MT",
      "state": "MT",
      "site_no": "05014500",
      "lat": 48.7988333,
      "lon": -113.6567306,
      "drain_area_sqmi": 31.2,
      "alt_ft": 4876.78,
      "huc_cd": "09040001",
      "state_cd": "30"
    },
    {
      "id": "01428750",
      "name": "West Branch Lackawaxen River near Aldenville, PA",
      "state": "PA",
      "site_no": "01428750",
      "lat": 41.67452998,
      "lon": -75.37601299,
      "drain_area_sqmi": 40.6,
      "alt_ft": 1244.0,
      "huc_cd": "02040103",
      "state_cd": "42"
    }
  ]
}